serialNum,property,name,index,lat,lon
3692,ФГБУ Среднесибирское УГМС,АБАН,29485,56.7,96.0333
4187,ФГБУ Обь-Иртышское УГМС,АБАТСКОЕ,28581,56.28737778,70.43459722
2717,ФГБУ Приволжское УГМС,АБДУЛИНО,28815,53.65,53.65
1853,ФГБУ Приволжское УГМС,АВАНГАРД ЗЕРН.С/З,28908,52.62,51.28
5043,ФГБУ Якутское УГМС,АГАЯКАН,24684,63.33333333,141.7333333
5555,ФГБУ Приморское УГМС,АГЗУ,31825,47.36,138.24
4612,ФГБУ Забайкальское УГМС,АГИНСКОЕ,30859,51.1,114.52
3694,ФГБУ Среднесибирское УГМС,АГИНСКОЕ - Р.АНЖА,29676,55.25,94.8833
8793,ФГБУ Крымское УГМС,АЙ-ПЕТРИ,33998,44.48000278,34.08333333
1855,ФГБУ Приволжское УГМС,АЙДЫРЛЯ,35039,51.95,59.88
3393,ФГБУ Западно-Сибирское УГМС,Ак-Кем,36443,49.91,86.54
1856,ФГБУ Приволжское УГМС,АКБУЛАК,35127,51.02,55.63
2168,ФГБУ Башкирское УГМС,АКСАКОВО,28719,54.02,54.15
1857,ФГБУ УГМС Республики Татарстан,АКТАШ,28606,55.05083333,52.10916667
4538,ФГБУ Забайкальское УГМС,АКША,30957,50.27,113.27
2169,ФГБУ Башкирское УГМС,АКЪЯР,35037,51.87,58.21
2349,ФГБУ Северо-Кавказское УГМС,АЛАГИР,37227,43.07,44.25
3119,ФГБУ Уральское УГМС,АЛАПАЕВСК,28248,57.87,61.7
2667,ФГБУ Верхне-Волжское УГМС,АЛАТЫРЬ,27679,54.82,46.58
3394,ФГБУ Западно-Сибирское УГМС,Алейская,29937,52.31,82.46
1331,ФГБУ Центральное УГМС,АЛЕКСАНДРОВ,27428,56.4,38.75
1858,ФГБУ Приволжское УГМС,АЛЕКСАНДРОВ ГАЙ,34391,50.13191667,48.53611111
4537,ФГБУ Забайкальское УГМС,АЛЕКСАНДРОВСКИЙ З-Д,30971,50.92,117.93
3695,ФГБУ Среднесибирское УГМС,АЛЕКСАНДРОВСКИЙ ШЛЮЗ - Р.КАС,29059,59.42,89.3
2280,ФГБУ Северо-Кавказское УГМС,АЛЕКСАНДРОВСКОЕ,37051,44.72,43
8248,ФГБУ Центральное УГМС,АЛЕКСИН,27710,54.5,37.08
2839,ФГБУ Обь-Иртышское УГМС,АЛТАЙ - Р.КОНДА,23939,60.32888889,68.96027778
4804,ФГБУ Иркутское УГМС,АЛЫГДЖЕР,29894,53.63,98.22
4539,ФГБУ Забайкальское УГМС,АМАЗАР,30682,53.87,120.87
6035,ФГБУ Якутское УГМС,АМГА,24962,60.9,131.98
8484,ФГБУ Среднесибирское УГМС,АНАСТАСИНО,29674,55.12,93.38
8795,ФГБУ Крымское УГМС,АНГАРСКИЙ ПЕРЕВАЛ,33958,44.75000278,34.36000278
5270,ФГБУ Якутское УГМС,АНДРЮШКИНО,25017,69.17,154.5
144,ФГБУ Центрально-Черноземное УГМС,АННА,34238,51.48,40.42
1,ФГБУ Северное УГМС,АНТИПАЮТА,23058,69.10388889,76.85805556
5556,ФГБУ Приморское УГМС,АНУЧИНО - Р.АРСЕНЬЕBКА,31981,43.58,133.04
46,ФГБУ Мурманское УГМС,АПАТИТЫ,22213,67.55,33.35
3041,ФГБУ Уральское УГМС,АРГАЯШ,28548,55.55,60.9
2281,ФГБУ Северо-Кавказское УГМС,АРЗГИР,34964,45.4,44.2
5459,ФГБУ Колымское УГМС,Арка,24988,60.08,142.33
2802,ФГБУ Северо-Кавказское УГМС,АРМАВИР,37031,44.98333333,41.11666667
5460,ФГБУ Колымское УГМС,Армань,25914,59.68,150.16
1859,ФГБУ УГМС Республики Татарстан,АРСК,27593,56.09138889,49.86416667
2282,ФГБУ Северо-Кавказское УГМС,АРТЕЗИАН,37082,44.95000278,46.71666667
3696,ФГБУ Среднесибирское УГМС,АРТЕМОВСК,29772,54.52,93.38
3115,ФГБУ Уральское УГМС,АРТЕМОВСКИЙ,28346,57.37,61.92
408,ФГБУ Северное УГМС,АРХАНГЕЛЬСК,22550,64.5,40.72777778
2170,ФГБУ Башкирское УГМС,АРХАНГЕЛЬСКОЕ,28726,54.4,56.78
4378,ФГБУ Дальневосточное УГМС,АРХАРА,31594,49.42,130.08
6236,ФГБУ Северо-Кавказское УГМС,АРХЫЗ,37117,43.56666667,41.26666667
3697,ФГБУ Среднесибирское УГМС,АСКИЗ,29961,53.1333,90.4833
2171,ФГБУ Башкирское УГМС,АСКИНО,28522,56.11,56.57
2627,ФГБУ Северо-Кавказское УГМС,АСТРАХАНЬ,34880,46.28333333,47.98333333
1913,ФГБУ Приволжское УГМС,АТКАРСК,34069,51.87,45.03
3042,ФГБУ Уральское УГМС,АТЫМЬЯ,23829,61.03,62.22
2354,ФГБУ Северо-Кавказское УГМС,АХТЫ - р. Самур,37663,41.46666667,47.75
8905,ФГБУ Северо-Кавказское УГМС,АЧХОЙ-МАРТАН,37237,43.2,45.28333333
409,ФГБУ Северное УГМС,БАБАЕВО,27008,59.4,35.93
2355,ФГБУ Северо-Кавказское УГМС,БАБАЮРТ,37169,43.6,46.78333333
4787,ФГБУ Забайкальское УГМС,БАБУШКИН,30822,51.7,105.85
3478,ФГБУ Западно-Сибирское УГМС,Баган,29708,54.06,77.42
3473,ФГБУ Западно-Сибирское УГМС,Баево,29827,53.17,80.47
5480,ФГБУ Чукотское УГМС,БАИМКА,25335,66.53,164.28
4276,ФГБУ Среднесибирское УГМС,БАЙКИТ - Р.ПОДКАМЕННАЯ ТУНГУСКА,23891,61.6667,96.3667
2172,ФГБУ Башкирское УГМС,БАКАЛЫ,28615,55.18,53.8
3969,ФГБУ Западно-Сибирское УГМС,Бакчар,29328,57,82.04
2797,ФГБУ Приволжское УГМС,БАЛАКОВО,34086,52.02,47.82
3698,ФГБУ Среднесибирское УГМС,БАЛАХТА - Р.ЧУЛЫМ,29662,55.3833,91.6667
1860,ФГБУ Приволжское УГМС,БАЛАШОВ,34152,51.55,43.15
6040,ФГБУ Забайкальское УГМС,БАЛЕЙ,30866,51.55,116.7
5461,ФГБУ Колымское УГМС,Балыгычан,25611,63.91,154.1
5557,ФГБУ Приморское УГМС,БАРАБАШ,31971,43.12,131.28
5007,ФГБУ Иркутское УГМС,БАРГУЗИНСКИЙ ЗАПОВЕДНИК,30536,54.33333333,109.5333333
3395,ФГБУ Западно-Сибирское УГМС,Барзас,29548,55.42,86.16
4606,ФГБУ Забайкальское УГМС,БАТАКАН,30778,52.07,118.83
5044,ФГБУ Якутское УГМС,БАТАМАЙ,24656,63.52,129.48
3396,ФГБУ Западно-Сибирское УГМС,Батурино,29247,57.47,85.09
1603,ФГБУ Верхне-Волжское УГМС,БАТЫРЕВО,27685,55.07,47.6
3699,ФГБУ Среднесибирское УГМС,БАХТА - Р.ЕНИСЕЙ,23776,62.47,89
4805,ФГБУ Иркутское УГМС,БАЯНДАЙ,30627,53.1,105.53
1585,ФГБУ Центральное УГМС,БЕЖЕЦК,27217,57.76,36.7
2283,ФГБУ Северо-Кавказское УГМС,БЕЛАЯ ГЛИНА,34836,46.08333333,40.88333333
2804,ФГБУ Северо-Кавказское УГМС,БЕЛАЯ КАЛИТВА,34539,48.25,40.82
1604,ФГБУ Верхне-Волжское УГМС,БЕЛАЯ ХОЛУНИЦА,28105,58.83,50.85
1861,ФГБУ Приволжское УГМС,БЕЛИНСКИЙ,27955,52.97,43.4
3397,ФГБУ Западно-Сибирское УГМС,Белово,29745,54.27,86.22
4321,ФГБУ Дальневосточное УГМС,БЕЛОГОРСК - Р.ТОМЬ,31513,50.92,128.47
1226,ФГБУ Северное УГМС,БЕЛОЗЕРСК,22939,60.02027778,37.75916667
2762,ФГБУ Башкирское УГМС,БЕЛОРЕЦК,28831,53.96,58.35
2284,ФГБУ Северо-Кавказское УГМС,БЕЛОРЕЧЕНСК,37013,44.75,39.9
746,ФГБУ Центральное УГМС,БЕЛЫЙ,26585,55.83,32.93
34526,ФГБУ Западно-Сибирское УГМС,Белый Яр,29242,58.4,85.03333333
1862,ФГБУ Приволжское УГМС,БЕЛЯЕВКА,35125,51.42,56.42
6036,ФГБУ Якутское УГМС,БЕРДИГЕСТЯХ,24758,62.27,127.07
6197,ФГБУ Дальневосточное УГМС,БЕРЕГОВОЙ,31257,54.38,127.4
4193,ФГБУ Уральское УГМС,БЕРЕЗНИКИ,28029,59.38,56.93
5045,ФГБУ Якутское УГМС,БЕСТЯХСКАЯ ЗВЕРОФЕРМА,24449,65.3,124.12
3700,ФГБУ Среднесибирское УГМС,БЕЯ - Р.БЕЯ,29962,53.05,90.9167
3399,ФГБУ Западно-Сибирское УГМС,Бийск-Зональная,29939,52.41,84.56
4322,ФГБУ Дальневосточное УГМС,БИКИН,31832,46.8,134.27
5462,ФГБУ Чукотское УГМС,БИЛИБИНО,25147,68.05,166.45
4323,ФГБУ Дальневосточное УГМС,БИРОБИДЖАН,31713,48.73,132.95
2174,ФГБУ Башкирское УГМС,БИРСК,28621,55.4,55.55
410,ФГБУ Северное УГМС,БИРЯКОВО,27044,59.58,41.48
3043,ФГБУ Уральское УГМС,БИСЕР,28138,58.52,58.85
3044,ФГБУ Уральское УГМС,БИСЕРТЬ,28432,56.88,59.07
4324,ФГБУ Дальневосточное УГМС,"БИЧЕВАЯ - Р.ХОР, ПРОТОКА БЕЗ НАЗВАНИЯ",31792,47.77,135.63
4542,ФГБУ Забайкальское УГМС,БИЧУРА,30934,50.6,107.58
3400,ФГБУ Западно-Сибирское УГМС,Благовещенка,29916,52.46,79.51
2285,ФГБУ Северо-Кавказское УГМС,БЛАГОДАРНЫЙ,34958,45.1,43.45
6113,ФГБУ Приморское УГМС,БОГОПОЛЬ - Р.ЗЕРКАЛЬНАЯ,31958,44.15,135.27
145,ФГБУ Центрально-Черноземное УГМС,БОГОРОДИЦКОЕ-ФЕНИНО ИМ. И.А. ПУЛЬМАНА,34110,51.16,37.35
4325,ФГБУ Дальневосточное УГМС,"БОГОРОДСКОЕ - МОРЕ ОХОТСКОЕ, Р.АМУР",31439,52.38,140.47
3701,ФГБУ Среднесибирское УГМС,БОГОТОЛ,29553,56.2333,89.5833
146,ФГБУ Центрально-Черноземное УГМС,БОГУЧАР,34336,49.93,40.57
2286,ФГБУ Северо-Кавказское УГМС,БОКОВСКАЯ,34445,49.22,41.83
3401,ФГБУ Западно-Сибирское УГМС,Болотное,29539,55.4,84.24
187,ФГБУ Центрально-Черноземное УГМС,БОЛХОВ,27809,53.43,36.03
1863,ФГБУ Приволжское УГМС,БОЛЬШАЯ ГЛУШИЦА,35001,52.38,50.47
4543,ФГБУ Забайкальское УГМС,БОЛЬШАЯ ЛЕПРИНДА,30374,56.65,117.62
3702,ФГБУ Среднесибирское УГМС,БОЛЬШАЯ МУРТА - Р.НИЖНЯЯ ПОДЪЕМНАЯ,29471,56.9,93.1333
3045,ФГБУ Уральское УГМС,БОЛЬШАЯ СОСНОВА,28313,57.68,54.6
5307,ФГБУ Камчатское УГМС,БОЛЬШЕРЕЦК,32562,52.83333611,156.3000028
2840,ФГБУ Обь-Иртышское УГМС,Большеречье,15501,56.09444444,74.61
1605,ФГБУ Верхне-Волжское УГМС,БОЛЬШИЕ БЕРЕЗНИКИ,27777,54.17,45.98
1864,ФГБУ УГМС Республики Татарстан,БОЛЬШИЕ КАЙБИЦЫ,27683,55.40777778,48.18083333
4178,ФГБУ Обь-Иртышское УГМС,Большие Уки,28491,56.93333333,72.66666667
2158,ФГБУ Верхне-Волжское УГМС,БОЛЬШОЕ БОЛДИНО,27666,55.02,45.32
4807,ФГБУ Иркутское УГМС,БОЛЬШОЕ ГОЛОУСТНОЕ,30727,52.03,105.42
3703,ФГБУ Среднесибирское УГМС,БОЛЬШОЙ ОН - Р.БОЛЬШОЙ ОН,36074,52.06,89.75
3704,ФГБУ Среднесибирское УГМС,БОЛЬШОЙ ПОРОГ - Р.НИЖНЯЯ ТУНГУСКА,23484,65.63,90.05
3705,ФГБУ Среднесибирское УГМС,БОЛЬШОЙ УЛУЙ - Р.БОЛЬШОЙ УЛУЙ,29464,56.65,90.55
4808,ФГБУ Иркутское УГМС,БОЛЬШОЙ УШКАНИЙ О-В,30632,53.85,108.58
4326,ФГБУ Дальневосточное УГМС,БОМНАК - ВДХР.ЗЕЯ,31253,54.72,128.87
147,ФГБУ Центрально-Черноземное УГМС,БОРИСОГЛЕБСК,34146,51.37,42.08
2674,ФГБУ Приволжское УГМС,БОРОВОЕ ЛЕСНИЧЕСТВО,28903,53,52.05
4806,ФГБУ Иркутское УГМС,БОХАН,30618,53.13,103.77
4327,ФГБУ Дальневосточное УГМС,БРАТОЛЮБОВКА,31521,50.78,129.33
3046,ФГБУ Уральское УГМС,БРЕДЫ,35041,52.43,60.35
1483,ФГБУ Центральное УГМС,БРЕЙТОВО,27213,58.3,37.86
3047,ФГБУ Уральское УГМС,БРОДОКАЛМАК,28549,55.58,62.07
8270,ФГБУ Центрально-Черноземное УГМС,БРЯНСК,26898,53.25,34.32
2175,ФГБУ Башкирское УГМС,БУЗДЯК,28713,54.57527778,54.53722222
1911,ФГБУ Приволжское УГМС,БУЗУЛУК,28909,52.82,52.22
1411,ФГБУ Центральное УГМС,БУЙ,27242,58.48,41.53
2356,ФГБУ Северо-Кавказское УГМС,БУЙНАКСК,37471,42.81666667,47.11666667
4544,ФГБУ Забайкальское УГМС,БУКУКУН,30948,49.45,111.13
4545,ФГБУ Забайкальское УГМС,БУРГЕНЬ,30755,52.43,113.77
3048,ФГБУ Уральское УГМС,БУРМАНТОВО,23827,61.28,60.47
4328,ФГБУ Дальневосточное УГМС,БУРУКАН - Р.ТУГУР ПРОТОКА ГАДЕК,31348,53.05,136
3049,ФГБУ Уральское УГМС,БУТКА,28455,56.72,63.77
5046,ФГБУ Якутское УГМС,БУЯГА,31011,59.64583333,121.1216667
6234,ФГБУ Якутское УГМС,БЫКОВ МЫС,21821,72,129.12
2841,ФГБУ Обь-Иртышское УГМС,Вагайское - Р.BАГАЙ,28278,57.94833333,69.0275
5669,ФГБУ Сахалинское УГМС,ВАЛ,32036,52.33,143.08
747,ФГБУ Северо-Западное УГМС,ВАЛААМ - ОЗ.ЛАДОЖСКОЕ,22805,61.37,30.88
148,ФГБУ Центрально-Черноземное УГМС,ВАЛУЙКИ,34321,50.22,38.1
3402,ФГБУ Западно-Сибирское УГМС,Ванжиль-Кынак,23966,60.21,84.05
3050,ФГБУ Уральское УГМС,ВАРНА,28847,53.38,60.95
2842,ФГБУ Обь-Иртышское УГМС,ВАХОВСК - Р.BАХ,23953,60.9575,78.77388889
3051,ФГБУ Уральское УГМС,ВАЯ,23913,60.6,58.38
2350,ФГБУ Северо-Кавказское УГМС,ВЕДЕНО,37361,42.96666667,46.1
748,ФГБУ Центральное УГМС,ВЕЛИЖ,26578,55.62,31.18
3706,ФГБУ Среднесибирское УГМС,ВЕЛЬМО - РУЧ.МИХАНСКИЙ,23982,61.02,93.42
3403,ФГБУ Западно-Сибирское УГМС,Венгерово,29508,55.4,76.43
411,ФГБУ Северное УГМС,ВЕНДИНГА,22686,63.44277778,47.92
3052,ФГБУ Уральское УГМС,ВЕРЕЩАГИНО,28216,58.08,54.68
3707,ФГБУ Среднесибирское УГМС,ВЕРЕЩАГИНО - Р.ЕНИСЕЙ,23578,64.23,87.47
3708,ФГБУ Среднесибирское УГМС,ВЕРХНЕИМБАТСК - Р.ЕНИСЕЙ,23678,63.15,87.95
4861,ФГБУ Иркутское УГМС,ВЕРХНЕМАРКОВО,30229,57.33,107.07
34551,ФГБУ Иркутское УГМС,ВЕРХНЕОКИНСКИЙ,30608,53.45,101.3166667
3055,ФГБУ Уральское УГМС,ВЕРХНЕУРАЛЬСК,28833,53.88,59.2
2176,ФГБУ Башкирское УГМС,ВЕРХНЕЯРКЕЕВО,28613,55.43,54.33
2288,ФГБУ Северо-Кавказское УГМС,ВЕРХНИЙ БАСКУНЧАК,34579,48.21666667,46.73333333
3054,ФГБУ Уральское УГМС,ВЕРХНИЙ УФАЛЕЙ,28541,56.08,60.3
4809,ФГБУ Иркутское УГМС,ВЕРХНЯЯ ГУТАРА,29789,54.22,96.97
1536,ФГБУ Северное УГМС,ВЕРХНЯЯ ТОЙМА,22778,62.23,45.03
149,ФГБУ Центрально-Черноземное УГМС,ВЕРХОВЬЕ,27915,52.82,37.27
4331,ФГБУ Дальневосточное УГМС,ВЕРХОВЬЕ УРМИ - Р.УРМИ,31548,50.05,133.58
3053,ФГБУ Уральское УГМС,ВЕРХОТУРЬЕ,28144,58.87,60.78
1606,ФГБУ Верхне-Волжское УГМС,ВЕРХОШИЖЕМЬЕ,27295,58.02,49.12
5047,ФГБУ Якутское УГМС,ВЕРХОЯНСКИЙ ПЕРЕВОЗ,24668,63.32,132.02
4329,ФГБУ Дальневосточное УГМС,ВЕСЕЛАЯ ГОРКА,31418,52.3,135.8
414,ФГБУ Северное УГМС,ВЕСЛЯНА,23701,62.98,50.9
1607,ФГБУ Верхне-Волжское УГМС,ВЕТЛУГА,27277,57.85,45.77
2843,ФГБУ Обь-Иртышское УГМС,Викулово - р.Ишим,28481,56.81833333,70.60388889
415,ФГБУ Северное УГМС,ВИЛЕГОДСКОЕ,22889,61.10416667,47.99389167
749,ФГБУ Северо-Западное УГМС,ВИННИЦЫ,22925,60.63,34.78
3056,ФГБУ Уральское УГМС,ВИСИМ,28333,57.67,59.53
2632,ФГБУ Северо-Кавказское УГМС,ВЛАДИКАВКАЗ,37228,43.03333333,44.68333333
8797,ФГБУ Крымское УГМС,ВЛАДИСЛАВОВКА,33973,45.17,35.38
8909,ФГБУ ГГО,ВОЕЙКОВО (ГГО),26002,59.95,30.7
413,ФГБУ Северное УГМС,ВОЖЕГА,22954,60.47472222,40.20833333
792,ФГБУ Северо-Западное УГМС,ВОЗНЕСЕНЬЕ - ОЗ.ОНЕЖСКОЕ,22829,61.02,35.48
2639,ФГБУ Северо-Кавказское УГМС,ВОЛГОГРАД-СХИ,34561,48.66666667,44.45
150,ФГБУ Центральное УГМС,ВОЛОВО,27824,53.55666667,38.00638889
8451,ФГБУ Северное УГМС,ВОЛОГДА,27037,59.32,39.93
282,ФГБУ Центральное УГМС,ВОЛОКОЛАМСК,27502,56.01277778,35.93305556
750,ФГБУ Северо-Западное УГМС,ВОЛОСОВО,26067,59.43,29.5
3987,ФГБУ Среднесибирское УГМС,ВОЛОЧАНКА - Р.ХЕТА,20982,70.9667,94.5
3490,ФГБУ Западно-Сибирское УГМС,Волчиха,36022,52.01,80.2
2844,ФГБУ Обь-Иртышское УГМС,ВОНЪЕГАН,23823,61.95611111,64.93777778
3709,ФГБУ Среднесибирское УГМС,ВОРОГОВО - Р.ЕНИСЕЙ,23973,61.03,89.63
31206,ФГБУ Центрально-Черноземное УГМС,Воронеж,34123,51.7,39.21666667
1608,ФГБУ Верхне-Волжское УГМС,ВОСКРЕСЕНСКОЕ,27463,56.81,45.43
5048,ФГБУ Якутское УГМС,ВОСТОЧНАЯ,24679,63.24111111,139.6291667
1609,ФГБУ Верхне-Волжское УГМС,ВОТКИНСК,28318,57.05,53.92
1384,ФГБУ Центральное УГМС,ВОХМА,27176,58.93,46.77
4812,ФГБУ Иркутское УГМС,ВЫДРИНО-НА-ЧУНЕ,29492,56.83,99.03
2159,ФГБУ Верхне-Волжское УГМС,ВЫКСА,27643,55.33,42.12
412,ФГБУ Северное УГМС,ВЫТЕГРА,22837,61.01694444,36.45555556
751,ФГБУ Центральное УГМС,ВЫШНИЙ ВОЛОЧЕК - Р.ВОЛГА,26393,57.53,34.55
4332,ФГБУ Дальневосточное УГМС,ВЯЗЕМСКАЯ,31786,47.52,134.77
1325,ФГБУ Центральное УГМС,ВЯЗНИКИ,27543,56.2,42.18
1865,ФГБУ УГМС Республики Татарстан,ВЯЗОВЫЕ,27594,55.81444444,48.51166667
798,ФГБУ Центральное УГМС,ВЯЗЬМА,26695,55.17,34.4
752,ФГБУ Северо-Западное УГМС,ВЯРТСИЛЯ,22707,62.18,30.68
2160,ФГБУ Верхне-Волжское УГМС,ВЯТСКИЕ ПОЛЯНЫ,28502,56.23,51.03
753,ФГБУ Центральное УГМС,ГАГАРИН,27507,55.55083333,35.02083333
3120,ФГБУ Уральское УГМС,ГАЙНЫ,23909,60.28,54.35
1380,ФГБУ Центральное УГМС,ГАЛИЧ,27243,58.38,42.37
3057,ФГБУ Уральское УГМС,ГАРИ,28049,59.43,62.33
4333,ФГБУ Дальневосточное УГМС,ГВАСЮГИ,31801,47.67,136.18
754,ФГБУ Северо-Западное УГМС,ГДОВ,26157,58.73,27.83
4334,ФГБУ Дальневосточное УГМС,ГЕОРГИЕВКА,31790,47.95,135.23
2289,ФГБУ Северо-Кавказское УГМС,ГЕОРГИЕВСК,37058,44.13,43.45
1641,ФГБУ Верхне-Волжское УГМС,ГЛАЗОВ,28214,58.13,52.58
5558,ФГБУ Приморское УГМС,ГЛУБИННОЕ - Р.ДАЛЬНЯЯ,31848,46.07,135.23
2845,ФГБУ Обь-Иртышское УГМС,ГОЛЫШМАНОВО,28478,56.40361389,68.36805556
8740,ФГБУ Северо-Кавказское УГМС,ГОРАГОРСКАЯ,37231,43.5,45.1
3984,ФГБУ Среднесибирское УГМС,ГОРБИАЧИН - Р.ГОРБИАЧИН,23275,67.48,87.83
4335,ФГБУ Дальневосточное УГМС,ГОРИН - Р.ГОРИН,31489,51.2,136.8
2290,ФГБУ Северо-Кавказское УГМС,ГОРНЫЙ,37017,44.28333333,39.26666667
3505,ФГБУ Западно-Сибирское УГМС,Горняк,36037,50.59,81.29
1866,ФГБУ Приволжское УГМС,ГОРОДИЩЕ,27877,53.28,45.68
2291,ФГБУ Северо-Кавказское УГМС,ГОРОДОВИКОВСК,34845,46.07,41.97
2292,ФГБУ Северо-Кавказское УГМС,ГОРЯЧИЙ КЛЮЧ - р. Псекупс,37014,44.63333333,39.1
4547,ФГБУ Забайкальское УГМС,ГОРЯЧИНСК,30731,52.98,108.28
151,ФГБУ Центрально-Черноземное УГМС,ГОТНЯ,34202,50.8,35.77
34530,ГУ  Белгидромет,ГРОДНО,26820,53.65361111,23.84222222
2818,ФГБУ Северо-Кавказское УГМС,ГРОЗНЫЙ,37235,43.25,45.71666667
4239,ФГБУ Уральское УГМС,ГУБАХА,28134,58.9,57.5
2293,ФГБУ Северо-Кавказское УГМС,ГУДЕРМЕС - р. Белка,37244,43.35,46.11666667
2767,ФГБУ Северо-Кавказское УГМС,ГУЗЕРИПЛЬ,37101,44,40.13
2357,ФГБУ Северо-Кавказское УГМС,ГУНИБ,37463,42.3875,46.965
1333,ФГБУ Центральное УГМС,ГУСЬ-ХРУСТАЛЬНЫЙ,27539,55.6,40.65
4813,ФГБУ Иркутское УГМС,ДАБАДЫ,30714,52.1,102.7
3058,ФГБУ Уральское УГМС,ДАЛМАТОВО,28457,56.27,62.93
1610,ФГБУ Верхне-Волжское УГМС,ДАЛЬНЕЕ КОНСТАНТИНОВО,27565,55.8,44.08
1469,ФГБУ Центральное УГМС,ДАНИЛОВ,27235,58.2,40.18
2294,ФГБУ Северо-Кавказское УГМС,ДАНИЛОВКА,34267,50.36666667,44.11666667
4548,ФГБУ Забайкальское УГМС,ДАРАСУН,30858,51.2,113.72
1611,ФГБУ Верхне-Волжское УГМС,ДАРОВСКОЙ,27185,58.77,47.97
2351,ФГБУ Северо-Кавказское УГМС,ДАХОВСКАЯ - р. Дах,37027,44.21666667,40.21666667
453,ФГБУ Северное УГМС,ДВИНСКОЙ БЕРЕЗНИК,22762,62.82833333,42.79194444
1612,ФГБУ Верхне-Волжское УГМС,ДЕБЁСЫ,28312,57.63,53.82
5049,ФГБУ Якутское УГМС,ДЕЛЯНКИР,24691,63.83861111,145.6011111
2846,ФГБУ Обь-Иртышское УГМС,Демьянское - р.Иртыш,28076,59.59216667,69.34461111
756,ФГБУ Северо-Западное УГМС,ДЕМЯНСК,26381,57.65,32.47
5050,ФГБУ Якутское УГМС,ДЖАЛИНДА,21908,70.13333333,113.9666667
4337,ФГБУ Дальневосточное УГМС,ДЖАЛИНДА - Р.АМУР,30695,53.47,123.9
4338,ФГБУ Дальневосточное УГМС,ДЖАНА,31235,55.32,134.55
8798,ФГБУ Крымское УГМС,ДЖАНКОЙ,33934,45.72,34.4
5051,ФГБУ Якутское УГМС,ДЖАРДЖАН,24143,68.73,124
5463,ФГБУ Колымское УГМС,"Джека Лондона, озеро",24799,62.08,149.5
5052,ФГБУ Якутское УГМС,ДЖИКИМДА,30089,59.02,121.77
2295,ФГБУ Северо-Кавказское УГМС,ДЖУБГА,37009,44.33333333,38.71666667
3710,ФГБУ Среднесибирское УГМС,ДЗЕРЖИНСКОЕ,29481,56.85,95.2167
1867,ФГБУ Приволжское УГМС,ДИМИТРОВГРАД,27799,54.23,49.6
283,ФГБУ Центральное УГМС,ДМИТРОВ,27419,56.35,37.57
152,ФГБУ Центрально-Черноземное УГМС,ДМИТРОВСК-ОРЛОВСКИЙ,34001,52.5,35.15
757,ФГБУ Северо-Западное УГМС,ДНО,26268,57.82,29.95
3059,ФГБУ Уральское УГМС,ДОБРЯНКА,28222,58.45,56.45
3970,ФГБУ Западно-Сибирское УГМС,Довольное,29716,54.31,79.41
5309,ФГБУ Камчатское УГМС,ДОЛИНОВКА,32447,55.11666667,159.0666667
5670,ФГБУ Сахалинское УГМС,ДОЛИНСК,32133,47.2,142.48
1868,ФГБУ Приволжское УГМС,ДОМБАРОВСКИЙ,35233,50.75,59.55
6237,ФГБУ Северо-Кавказское УГМС,ДОНДУКОВСКАЯ,37022,44.86666667,40.35000278
5053,ФГБУ Якутское УГМС,ДОРОЖНЫЙ,24826,61.62,114.62
2296,ФГБУ Северо-Кавказское УГМС,"ДОСАНГ - Р. BОЛГА, РУК. АХТУБА",34785,46.91666667,47.93333333
1869,ФГБУ УГМС Республики Татарстан,ДРОЖЖАНОЕ,27782,54.71055556,47.57472222
2177,ФГБУ Башкирское УГМС,ДУВАН,28537,55.7,57.9
6029,ФГБУ Дальневосточное УГМС,ДУГДА,31318,53.35,130
4550,ФГБУ Забайкальское УГМС,ДУЛЬДУРГА,30952,50.68,113.58
7874,ФГБУ Башкирское УГМС,ДЮРТЮЛИ,28610,55.43,54.7
3094,ФГБУ Уральское УГМС,ЕКАТЕРИНБУРГ,28440,56.83,60.63
4381,ФГБУ Дальневосточное УГМС,ЕКАТЕРИНО-НИКОЛЬСКОЕ - Р.АМУР,31707,47.73333333,130.97
4339,ФГБУ Дальневосточное УГМС,ЕКАТЕРИНОСЛАВКА,31524,50.37,129.08
5054,ФГБУ Якутское УГМС,ЕКЮЧЧЮ,24361,66.77,131.6
1870,ФГБУ УГМС Республики Татарстан,ЕЛАБУГА,28506,55.75888889,52.04416667
4340,ФГБУ Дальневосточное УГМС,ЕЛАБУГА - Р.АМУР,31733,48.82,135.88
4814,ФГБУ Иркутское УГМС,ЕЛАНЦЫ,30721,52.8,106.43
2297,ФГБУ Северо-Кавказское УГМС,ЕЛАНЬ - р. Терса,34253,50.95000278,43.73333333
1433,ФГБУ Центральное УГМС,ЕЛАТЬМА,27648,54.96,41.75
153,ФГБУ Центрально-Черноземное УГМС,ЕЛЕЦ,27928,52.63,38.52
416,ФГБУ Северное УГМС,ЕЛЕЦКАЯ,23220,67.04583333,64.22333333
758,ФГБУ Центральное УГМС,ЕЛЬНЯ,26783,54.57,33.17
2178,ФГБУ Башкирское УГМС,ЕМАШИ,28535,55.93,58.61
6133,ФГБУ Иркутское УГМС,ЕРБОГАЧЁН,24817,61.27,108.02
3711,ФГБУ Среднесибирское УГМС,ЕРМАКОВСКОЕ - Р.ОЯ,29869,53.3,92.4167
4341,ФГБУ Дальневосточное УГМС,ЕРОФЕЙ ПАВЛОВИЧ,30683,53.97,121.93
2653,ФГБУ Приволжское УГМС,ЕРШОВ,34186,51.37,48.3
4815,ФГБУ Иркутское УГМС,ЕРШОВО,30209,57.12,102.3
759,ФГБУ Северо-Западное УГМС,ЕФИМОВСКАЯ,26099,59.5,34.7
154,ФГБУ Центральное УГМС,ЕФРЕМОВ,27921,53.15,38.12
1323,ФГБУ Центрально-Черноземное УГМС,ЖЕЛЕЗНОГОРСК,34002,52.35,35.37
6088,ФГБУ Иркутское УГМС,ЖЕЛЕЗНОГОРСК,30310,56.55,104.12
794,ФГБУ Северо-Западное УГМС,ЖЕЛЕЗНОДОРОЖНЫЙ,26706,54.37,21.3
155,ФГБУ Центрально-Черноземное УГМС,ЖЕРДЕВКА,34047,51.8167,41.4333
6089,ФГБУ Иркутское УГМС,ЖИГАЛОВО,30521,54.8,105.17
156,ФГБУ Центральное УГМС,ЖИЗДРА,26896,53.75,34.73
157,ФГБУ Центрально-Черноземное УГМС,ЖУКОВКА,26894,53.53,33.75
4551,ФГБУ Забайкальское УГМС,ЗАБАЙКАЛЬСК,30968,49.66936111,117.2984167
4342,ФГБУ Дальневосточное УГМС,ЗАВИТАЯ,31527,50.12,129.47
4816,ФГБУ Иркутское УГМС,ЗАЛАРИ,30606,53.55,102.5
4552,ФГБУ Забайкальское УГМС,ЗАМАКТА,30741,52.77,109.97
29,ФГБУ Мурманское УГМС,ЗАРЕЧЕНСК - BДХР.ИОBСКОЕ,22302,66.68,31.43
3404,ФГБУ Западно-Сибирское УГМС,Заринск,29836,53.45,84.56
760,ФГБУ Северо-Западное УГМС,"ЗАШЕЕК - ВДХР.КУМСКОЕ, ОЗ.ПЯОЗЕРО",22305,66.25,31.12
4817,ФГБУ Иркутское УГМС,ЗАЯРСК,30317,56.2,102.85
3060,ФГБУ Уральское УГМС,ЗВЕРИНОГОЛОВСКОЕ,28756,54.47,64.87
3971,ФГБУ Западно-Сибирское УГМС,Здвинск,29712,54.43,78.4
2298,ФГБУ Северо-Кавказское УГМС,"ЗЕЛЕНГА - р. BОЛГА, рук. БОЛДА, пр. ЗЕЛЕНГА",34894,46.18333333,48.61666667
2299,ФГБУ Северо-Кавказское УГМС,ЗЕЛЕНОКУМСК - р. Кума,37056,44.43333333,43.88333333
2300,ФГБУ Северо-Кавказское УГМС,ЗЕЛЕНЧУКСКАЯ - р. Большой Зеленчук,37112,43.86666667,41.56666667
1871,ФГБУ Приволжское УГМС,ЗЕМЕТЧИНО,27857,53.48,42.63
1887,ФГБУ Приволжское УГМС,ЗЕРН.С/Х ОЗЕРНЫЙ,35148,51.1,60.87
2301,ФГБУ Северо-Кавказское УГМС,ЗЕРНОГРАД,34735,46.85,40.32
4853,ФГБУ Иркутское УГМС,ЗИМА,30603,53.93,102.05
2302,ФГБУ Северо-Кавказское УГМС,ЗИМОВНИКИ,34743,47.15,42.48
3111,ФГБУ Уральское УГМС,ЗЛАТОУСТ,28630,55.17,59.67
3405,ФГБУ Западно-Сибирское УГМС,Змеиногорск,36038,51.09,82.1
4238,ФГБУ Обь-Иртышское УГМС,Знаменское,28398,57.11888889,73.82166667
6127,ФГБУ Иркутское УГМС,ЗУЛУМАЙ,30602,53.7,101.35
4278,ФГБУ Среднесибирское УГМС,"ИГАРКА - МОРЕ КАРСКОЕ, Р.ЕНИСЕЙ",23274,67.47,86.57
4343,ФГБУ Дальневосточное УГМС,ИГНАШИНО,30686,53.47,122.4
1613,ФГБУ Верхне-Волжское УГМС,ИГРА,28315,57.55,53.1
3712,ФГБУ Среднесибирское УГМС,ИДРИНСКОЕ,29766,54.3667,92.1333
1651,ФГБУ Верхне-Волжское УГМС,ИЖЕВСК,28411,56.83,53.45
1286,ФГБУ Северное УГМС,ИЖМА,23503,65.00055556,53.91916667
2303,ФГБУ Северо-Кавказское УГМС,ИЗОБИЛЬНЫЙ,34945,45.37,41.7
4818,ФГБУ Иркутское УГМС,ИКА,30028,59.28,106.17
4820,ФГБУ Иркутское УГМС,ИКЕЙ,30507,54.18,100.08
2304,ФГБУ Северо-Кавказское УГМС,ИКИ-БУРУЛ,34868,45.8,44.63
1872,ФГБУ Приволжское УГМС,ИЛЕК,35112,51.52,53.37
5482,ФГБУ Чукотское УГМС,ИЛИРНЕЙ,25248,67.25,167.97
2305,ФГБУ Северо-Кавказское УГМС,ИЛОВЛЯ,34461,49.3,44
5671,ФГБУ Сахалинское УГМС,ИЛЬИНСКИЙ - МОРЕ ЯПОНСКОЕ,32121,47.98,142.2
4819,ФГБУ Иркутское УГМС,ИНГА,30703,52.97,101.98
1873,ФГБУ Приволжское УГМС,ИНЗА,27872,53.85,46.42
1614,ФГБУ Верхне-Волжское УГМС,ИНСАР,27861,53.87,44.38
417,ФГБУ Северное УГМС,ИРАЕЛЬ,23514,64.52,55.4
3713,ФГБУ Среднесибирское УГМС,ИРБЕЙСКОЕ - Р.КАН,29587,55.6333,95.4667
3061,ФГБУ Уральское УГМС,"ИРБИТ, ФОМИНА",28351,57.62,62.97
2847,ФГБУ Обь-Иртышское УГМС,ИСИЛЬКУЛЬ,28688,54.93722222,71.27027778
5055,ФГБУ Якутское УГМС,ИСИТЬ,24951,60.82,125.32
3406,ФГБУ Западно-Сибирское УГМС,Искитим,29730,54.39,83.16
3986,ФГБУ Среднесибирское УГМС,ИСТОК - Р.ХАНТАЙКА,23176,68.42,89.25
4821,ФГБУ Иркутское УГМС,ИСТОК АНГАРЫ,30814,51.87,104.82
8271,ФГБУ Северо-Кавказское УГМС,ИТУМ-КАЛИ,37357,42.7,45.55
2890,ФГБУ Обь-Иртышское УГМС,Ишим - р.Ишим,28573,56.09897222,69.40986111
8800,ФГБУ Крымское УГМС,ИШУНЬ,33933,45.92,33.82
5056,ФГБУ Якутское УГМС,ИЭМА,24477,65.3,135.8
1648,ФГБУ Верхне-Волжское УГМС,ЙОШКАР-ОЛА,27485,56.63,47.77
6134,ФГБУ Приморское УГМС,КАВАЛЕРОВО,31946,44.15,135.03
2306,ФГБУ Северо-Кавказское УГМС,КАЗАНСКАЯ - р. Дон,34344,49.8,41.15
2716,ФГБУ УГМС Республики Татарстан,КАЗАНЬ,27595,55.74,49.20444444
4863,ФГБУ Иркутское УГМС,КАЗАЧИНСКОЕ,30337,56.32,107.62
3714,ФГБУ Среднесибирское УГМС,КАЗАЧИНСКОЕ - Р.ЕНИСЕЙ,29374,57.6833,93.2833
2848,ФГБУ Обь-Иртышское УГМС,Казым - Р.АМНЯ,23632,63.70138889,67.23833333
3715,ФГБУ Среднесибирское УГМС,КАЗЫР - Р.КАЗЫР,29876,53.68,94.17
4555,ФГБУ Забайкальское УГМС,КАЙЛАСТУЙ,30978,49.83369444,118.3915
1874,ФГБУ Приволжское УГМС,КАЛИНИНСК,34164,51.48,44.5
4826,ФГБУ Иркутское УГМС,КАЛТУК,30406,55.68,101.75
1875,ФГБУ Приволжское УГМС,КАМЕНКА БЕЛИНСКАЯ,27961,53.18,44.03
3062,ФГБУ Уральское УГМС,КАМЕНСК-УРАЛЬСКИЙ,28449,56.43,61.87
2307,ФГБУ Северо-Кавказское УГМС,КАМЕНСК-ШАХТИНСКИЙ - р. Северский Донец,34535,48.3,40.3
3407,ФГБУ Западно-Сибирское УГМС,Камень-на-Оби - р. Обь,29822,53.49,81.16
2641,ФГБУ Северо-Кавказское УГМС,КАМЫШИН,34363,50.06666667,45.36666667
3063,ФГБУ Уральское УГМС,КАМЫШЛОВ,28451,56.85,62.72
1876,ФГБУ Приволжское УГМС,КАНАДЕЙ,27981,53.15,47.52
2179,ФГБУ Башкирское УГМС,КАНАНИКОЛЬСКОЕ,28926,52.77666667,57.48361111
1615,ФГБУ Верхне-Волжское УГМС,КАНАШ,27587,55.52,47.47
20,ФГБУ Мурманское УГМС,КАНЕВКА,22249,67.13,39.67
2308,ФГБУ Северо-Кавказское УГМС,КАНЕВСКАЯ,34825,46.06666667,38.96666667
5057,ФГБУ Якутское УГМС,КАНКУ,31102,57.65,125.9666667
3409,ФГБУ Западно-Сибирское УГМС,Кара-Тюрек им. Р .Я. Гесса,36442,50.0317,86.4504
1877,ФГБУ Приволжское УГМС,КАРАБУЛАК,34072,52.33,46.37
2764,ФГБУ Башкирское УГМС,КАРАИДЕЛЬ,28526,55.83,56.91
6063,ФГБУ Иркутское УГМС,КАРАМ,30437,55.15,107.62
3408,ФГБУ Западно-Сибирское УГМС,Карасук,29814,53.44,78.01
3717,ФГБУ Среднесибирское УГМС,КАРАТУЗСКОЕ,29874,53.6,92.85
4312,ФГБУ Среднесибирское УГМС,КАРАУЛ - Р.ЕНИСЕЙ,20978,70.0833,83.1667
158,ФГБУ Центрально-Черноземное УГМС,КАРАЧЕВ,27901,53.13,35
3492,ФГБУ Западно-Сибирское УГМС,Каргасок,29122,59.04,80.51
3410,ФГБУ Западно-Сибирское УГМС,Каргат,29624,55.11,80.16
4234,ФГБУ Уральское УГМС,КАРПИНСК,28033,59.75,60
1537,ФГБУ Северное УГМС,КАРПОГОРЫ,22671,64.01055556,44.44944722
3064,ФГБУ Уральское УГМС,КАРТАЛЫ,28941,53.05,60.67
31462,ФГБУ ИПГ,КАРТАЛЫ,28941,53.07,60.66
4605,ФГБУ Забайкальское УГМС,КАРЫМСКАЯ ЦЕНТРАЛЬНАЯ РАДИОСТАНЦИЯ,30853,51.63,114.32
2358,ФГБУ Северо-Кавказское УГМС,КАСУМКЕНТ - р. Курах,37597,41.66666667,48.15
3065,ФГБУ Уральское УГМС,КАТАВ-ИВАНОВСК,28639,54.77,58.22
3411,ФГБУ Западно-Сибирское УГМС,Катанда,36237,50.1,86.11
3718,ФГБУ Среднесибирское УГМС,КАЧА,29563,56.12,92.2
3066,ФГБУ Уральское УГМС,КАЧКАНАР,28135,58.68,59.53
4864,ФГБУ Иркутское УГМС,КАЧУГ,30622,53.97,105.9
761,ФГБУ Центральное УГМС,КАШИН,27316,57.33,37.57
401,ФГБУ Центральное УГМС,КАШИРА,27627,54.83,38.15
5464,ФГБУ Колымское УГМС,Кегали,25526,64.25,161.06
425,ФГБУ Северное УГМС,КЕДВА-ВОМ,23509,64.22,53.57
3719,ФГБУ Среднесибирское УГМС,КЕЛЛОГ - Р.ЕЛОГУЙ,23774,62.48,86.28
3720,ФГБУ Среднесибирское УГМС,КЕМЧУГ,29562,56.1,91.67
418,ФГБУ Северное УГМС,КЕПИНО,22456,65.3825,41.88111111
3721,ФГБУ Среднесибирское УГМС,КЕРБО - Р.ТАЙМУРА,23699,62.7167,101.12
2352,ФГБУ Северо-Кавказское УГМС,КЕТЧЕНЕРЫ - р. Балка  Амта-Бургуста,34668,47.31666667,44.56666667
3067,ФГБУ Уральское УГМС,КИЗИЛЬСКОЕ,28939,52.72,58.88
2743,ФГБУ Северо-Кавказское УГМС,КИЗЛЯР,37163,43.83333333,46.71666667
5058,ФГБУ Якутское УГМС,КИЛЕЕР,24933,60.95,119.3
1646,ФГБУ Верхне-Волжское УГМС,КИЛЬМЕЗЬ,28402,56.9,51.07
1912,ФГБУ Приволжское УГМС,КИНЕЛЬ-ЧЕРКАССЫ,28805,53.46055556,51.54722222
822,ФГБУ Северо-Западное УГМС,КИРИШИ,26080,59.45,32.03
5559,ФГБУ Приморское УГМС,КИРОВСКИЙ - Р.УССУРИ,31878,45.06,133.3
2162,ФГБУ Верхне-Волжское УГМС,КИРС,28009,59.35,52.25
159,ФГБУ Центрально-Черноземное УГМС,КИРСАНОВ,27957,52.65,42.7
3412,ФГБУ Западно-Сибирское УГМС,Киселевск им. Л. Р. и Н. А. Петровых,29749,54.02,86.39
2279,ФГБУ Северо-Кавказское УГМС,КИСЛОВОДСК,37123,43.9,42.72
3722,ФГБУ Среднесибирское УГМС,КИСЛОКАН - Р.НИЖНЯЯ ТУНГУСКА,24606,63.5833,103.97
284,ФГБУ Центральное УГМС,КЛИН,27417,56.35,36.75
2309,ФГБУ Северо-Кавказское УГМС,КЛУХОРСКИЙ ПЕРЕВАЛ,37196,43.25,41.85
3413,ФГБУ Западно-Сибирское УГМС,Ключи,36021,52.16,79.12
1878,ФГБУ Приволжское УГМС,КЛЯВЛИНО,28709,54.27,52.03
4824,ФГБУ Иркутское УГМС,КОБЛЯКОВО,30305,56.58,101.43
21,ФГБУ Мурманское УГМС,КОВДОР,22204,67.57,30.45
9073,ФГБУ Среднесибирское УГМС,КОДИНСК,29199,58.6,99.2
3474,ФГБУ Западно-Сибирское УГМС,Кожевниково,29532,56.15,83.58
5768,ФГБУ Камчатское УГМС,КОЗЫРЕВСК,32379,56.05,159.87
1616,ФГБУ Верхне-Волжское УГМС,КОЗЬМОДЕМЬЯНСК,27479,56.33,46.58
452,ФГБУ Северное УГМС,КОЙГОРОДОК,23904,60.44444444,50.97111111
420,ФГБУ Северное УГМС,КОЙНАС,22583,64.75,47.65
762,ФГБУ Северо-Западное УГМС,КОЛЕЖМА,22529,64.23872222,35.86791667
1425,ФГБУ Центральное УГМС,КОЛОГРИВ,27164,58.82,44.32
285,ФГБУ Центральное УГМС,КОЛОМНА,27625,55.13,38.73
3475,ФГБУ Западно-Сибирское УГМС,Колывань,29631,55.19,82.44
5059,ФГБУ Якутское УГМС,КОМАКА,24928,60.26666667,111.7333333
3724,ФГБУ Среднесибирское УГМС,КОММУНАР,29759,54.33,89.28
2310,ФГБУ Северо-Кавказское УГМС,КОМСОМОЛЬСКИЙ,34975,45.35,46.03
1879,ФГБУ Приволжское УГМС,КОНДОЛЬ,27966,52.82,45.07
3414,ФГБУ Западно-Сибирское УГМС,Кондома,29946,52.49,87.16
764,ФГБУ Северо-Западное УГМС,КОНДОПОГА - ОЗ.ОНЕЖСКОЕ,22727,62.17,34.3
421,ФГБУ Северное УГМС,КОНЕВО,22749,62.10444444,39.29111111
422,ФГБУ Северное УГМС,КОНОША,22951,60.98,40.27
6102,ФГБУ Иркутское УГМС,КОНОШАНОВО,30425,55.35,105.45
4345,ФГБУ Дальневосточное УГМС,КОНСТАНТИНОВКА - Р.АМУР,31586,49.62,127.97
2311,ФГБУ Северо-Кавказское УГМС,КОНСТАНТИНОВСК - р. Дон,34644,47.58,41.1
5466,ФГБУ Чукотское УГМС,КОНСТАНТИНОВСКАЯ,25129,68.15,161.17
160,ФГБУ Центрально-Черноземное УГМС,КОНЬ-КОЛОДЕЗЬ,34026,52.15,39.15
2312,ФГБУ Северо-Кавказское УГМС,КОРЕНОВСК,34926,45.46666667,39.48333333
5467,ФГБУ Колымское УГМС,Коркодон,25503,64.75,153.97
2849,ФГБУ Обь-Иртышское УГМС,КОРЛИКИ,23862,61.53611111,82.42305556
3068,ФГБУ Уральское УГМС,КОСА,28013,59.95,55
1287,ФГБУ Северное УГМС,КОСЛАН,22695,63.45,48.92
1415,ФГБУ Центральное УГМС,КОСТРОМА,27333,57.73,40.78
2313,ФГБУ Северо-Кавказское УГМС,КОТЕЛЬНИКОВО,34655,47.63333333,43.15
1617,ФГБУ Верхне-Волжское УГМС,КОТЕЛЬНИЧ,27283,58.3,48.35
424,ФГБУ Северное УГМС,КОТКИНО,23207,67.02833333,51.14111111
3069,ФГБУ Уральское УГМС,КОЧЕВО,28016,59.6,54.47
3415,ФГБУ Западно-Сибирское УГМС,Коченево,29626,55.02,82.14
3416,ФГБУ Западно-Сибирское УГМС,Кочки,29724,54.2,80.28
2359,ФГБУ Северо-Кавказское УГМС,КОЧУБЕЙ,37085,44.4,46.55
3477,ФГБУ Западно-Сибирское УГМС,Кош-Агач,36259,50,88.4
3417,ФГБУ Западно-Сибирское УГМС,Крапивино,29649,55,86.49
161,ФГБУ Центрально-Черноземное УГМС,КРАСНАЯ ГОРА,26976,53.02,31.6
1220,ФГБУ Северное УГМС,КРАСНОБОРСК,22876,61.54916667,45.93861111
2314,ФГБУ Северо-Кавказское УГМС,КРАСНОГВАРДЕЙСКОЕ,34848,45.83333611,41.48333889
30858,ФГБУ Северо-Кавказское УГМС,КРАСНОДАР,34920,45.03333333,39.15
3418,ФГБУ Западно-Сибирское УГМС,Красное,29741,54.36,85.24
4183,ФГБУ Западно-Сибирское УГМС,Краснозерск,29813,53.59,79.16
4560,ФГБУ Забайкальское УГМС,КРАСНОКАМЕНСК,30977,50.1,118.03
1618,ФГБУ Верхне-Волжское УГМС,КРАСНОСЛОБОДСК,27756,54.43,43.77
3112,ФГБУ Уральское УГМС,КРАСНОУФИМСК,28434,56.65,57.78
3419,ФГБУ Западно-Сибирское УГМС,Краснощеково,36036,51.4,82.44
23,ФГБУ Мурманское УГМС,КРАСНОЩЕЛЬЕ,22235,67.35,37.05
3774,ФГБУ Среднесибирское УГМС,КРАСНОЯРСК,29574,56.02,92.88
3725,ФГБУ Среднесибирское УГМС,КРАСНОЯРСК ОПЫТ.ПОЛЕ,29570,56.03,92.75
765,ФГБУ Центральное УГМС,КРАСНЫЙ ХОЛМ,27215,58.03,37.1
5560,ФГБУ Приморское УГМС,КРАСНЫЙ ЯР - Р.БИКИН,31845,46.32,135.19
5060,ФГБУ Якутское УГМС,КРЕСТ-ХАЛЬДЖАЙ,24763,62.80627778,134.4773361
766,ФГБУ Северо-Западное УГМС,КРЕСТЦЫ,26285,58.26666389,32.53333056
5061,ФГБУ Якутское УГМС,КРЕСТЯХ,24737,62.26666667,116.15
3420,ФГБУ Западно-Сибирское УГМС,Крещенка,29524,55.51,80.03
2315,ФГБУ Северо-Кавказское УГМС,КРОПОТКИН,34936,45.43333333,40.56666667
2316,ФГБУ Северо-Кавказское УГМС,КРЫМСК,37002,44.91666667,38
4559,ФГБУ Забайкальское УГМС,КСЕНЬЕВСКАЯ,30675,53.55,118.72
1880,ФГБУ Приволжское УГМС,КУВАНДЫК,35126,51.45,57.4
3122,ФГБУ Уральское УГМС,КУДЫМКАР,28116,59.02,54.65
3421,ФГБУ Западно-Сибирское УГМС,Кузедеево,29849,53.2,87.11
3726,ФГБУ Среднесибирское УГМС,КУЗЬМОВКА - Р.ПОДКАМЕННАЯ ТУНГУСКА,23788,62.32,92.12
4825,ФГБУ Иркутское УГМС,КУЛТУК,30812,51.72,103.7
3422,ФГБУ Западно-Сибирское УГМС,Кулунда,36024,52.34,78.52
1619,ФГБУ Верхне-Волжское УГМС,КУМЕНЫ,27296,58.1,49.92
2180,ФГБУ Башкирское УГМС,КУМЕРТАУ,28927,52.76,55.78
2850,ФГБУ Обь-Иртышское УГМС,КУМИНСКАЯ,28165,58.8,65.98166944
2744,ФГБУ Северо-Кавказское УГМС,КУМУХ - р. Казикумухское Койсу,37477,42.11666667,47.11666667
3070,ФГБУ Уральское УГМС,КУНГУР,28326,57.42,56.93
3727,ФГБУ Среднесибирское УГМС,КУНГУРТУК,36325,50.6,97.52
4822,ФГБУ Иркутское УГМС,КУНЕРМА,30430,55.8,108.4
3494,ФГБУ Западно-Сибирское УГМС,Купино,29706,54.23,77.19
2808,ФГБУ Северо-Кавказское УГМС,КУППА,37257,42.4,47.11666944
4346,ФГБУ Дальневосточное УГМС,КУР - Р.КУР,31632,49.93,134.63
4261,ФГБУ Уральское УГМС,КУРГАН,28661,55.45,65.4
3728,ФГБУ Среднесибирское УГМС,"КУРЕЙКА - МОРЕ КАРСКОЕ, Р.ЕНИСЕЙ",23375,66.47,87.22
3071,ФГБУ Уральское УГМС,КУРТАМЫШ,28659,54.92,64.43
6047,ФГБУ Забайкальское УГМС,КУРУМКАН,30547,54.32,110.3
8243,ФГБУ Северо-Кавказское УГМС,КУРЧАЛОЙ,37247,43.21666667,46.11666667
185,ФГБУ Центрально-Черноземное УГМС,КУРЧАТОВ,34102,51.65,35.68
4823,ФГБУ Иркутское УГМС,КУТУЛИК,30616,53.38,102.78
3072,ФГБУ Уральское УГМС,КУШВА,28233,58.32,59.75
2181,ФГБУ Башкирское УГМС,КУШНАРЕНКОВО,28624,55.13,55.35
2317,ФГБУ Северо-Кавказское УГМС,КУЩЕВСКАЯ,34737,46.53333333,39.61666667
3423,ФГБУ Западно-Сибирское УГМС,Кызыл-Озек,36055,51.54,86
3073,ФГБУ Уральское УГМС,КЫН,28238,57.83,58.65
4562,ФГБУ Забайкальское УГМС,КЫРА,30949,49.57,111.97
4793,ФГБУ Забайкальское УГМС,КЫРЕН,30806,51.68,102.15
3074,ФГБУ Уральское УГМС,КЫТЛЫМ,28036,59.5,59.22
4184,ФГБУ Западно-Сибирское УГМС,Кыштовка,29405,56.36,76.34
5468,ФГБУ Колымское УГМС,Лабазная,25627,63.3,158.5
2368,ФГБУ Северо-Кавказское УГМС,ЛАБИНСК,37026,44.67,40.75
2651,ФГБУ Северо-Кавказское УГМС,ЛАГАНЬ,34984,45.4,47.35
5561,ФГБУ Приморское УГМС,ЛАЗО - Р.ЛАЗОBКА,31986,43.24,133.53
1881,ФГБУ УГМС Республики Татарстан,ЛАИШЕВО,27693,55.42416667,49.52666667
1620,ФГБУ Верхне-Волжское УГМС,ЛАЛЬСК,22983,60.7,47.6
3999,ФГБУ Обь-Иртышское УГМС,ЛАРЬЯК - Р.BАХ,23867,61.10194444,80.25472222
3075,ФГБУ Уральское УГМС,ЛЕБЯЖЬЕ,28662,55.28,66.5
3729,ФГБУ Среднесибирское УГМС,ЛЕБЯЖЬЕ - BДХР.КРАСНОЯРСКОЕ,29768,54.2,91.5833
162,ФГБУ Центрально-Черноземное УГМС,ЛЕВ ТОЛСТОЙ,27923,53.22,39.47
4348,ФГБУ Дальневосточное УГМС,ЛЕНИНСКОЕ - р. Амур,31710,47.95,132.62
4349,ФГБУ Дальневосточное УГМС,ЛЕРМОНТОВКА - Р.БИРА,31788,47.15,134.33
768,ФГБУ Северо-Западное УГМС,ЛЕСОГОРСКИЙ,22806,61.03,28.93
5562,ФГБУ Приморское УГМС,ЛЕСОЗАВОДСК - Р.УССУРИ,31875,45.28,133.23
2851,ФГБУ Обь-Иртышское УГМС,ЛЕУШИ,28064,59.64138889,65.70833333
163,ФГБУ Центрально-Черноземное УГМС,ЛИВНЫ,34013,52.43,37.6
2318,ФГБУ Северо-Кавказское УГМС,ЛИМАН,34887,45.8,47.21666667
3076,ФГБУ Уральское УГМС,ЛИПОВСКОЕ,28345,57.45,61.17
164,ФГБУ Центрально-Черноземное УГМС,ЛИСКИ,34231,51,39.5
6048,ФГБУ Дальневосточное УГМС,ЛИТОВКО,31647,49.23,135.18
1589,ФГБУ Северо-Западное УГМС,ЛОДЕЙНОЕ ПОЛЕ,22913,60.72,33.55
4350,ФГБУ Дальневосточное УГМС,ЛОКШАК - Р.ЗЕЯ УСТЬЕ Р.КУПУРИ,31263,54.73,130.45
4351,ФГБУ Дальневосточное УГМС,ЛОПЧА - Р.НЮКЖА,30497,55.77,122.78
3730,ФГБУ Среднесибирское УГМС,ЛОСИНОБОРСКОЕ - Р.КЕТЬ,29253,58.43,89.37
4827,ФГБУ Иркутское УГМС,ЛУКИНОВО,30519,54.18,104.7
1621,ФГБУ Верхне-Волжское УГМС,ЛУКОЯНОВ,27665,55.03,44.5
428,ФГБУ Северное УГМС,ЛУНЬ,23708,62.22527778,52.47583333
1622,ФГБУ Верхне-Волжское УГМС,ЛЫСКОВО,27563,56.01,45.03
3077,ФГБУ Уральское УГМС,ЛЫСЬВА,28234,58.12,57.78
2852,ФГБУ Обь-Иртышское УГМС,ЛЮБИМОВКА,29701,54.67000278,75.12083333
4782,ФГБУ Дальневосточное УГМС,МАГДАГАЧИ,31295,53.45,125.82
3367,ФГБУ Уральское УГМС,МАГНИТОГОРСК,28838,53.35,59.08
5469,ФГБУ Колымское УГМС,Мадаун,25904,60.6,150.7
4352,ФГБУ Дальневосточное УГМС,МАЗАНОВО - Р.ЗЕЯ,31443,51.63,128.82
8236,ФГБУ Северо-Кавказское УГМС,МАЙКОП,37021,44.61666667,40.08333611
3424,ФГБУ Западно-Сибирское УГМС,Майск,29209,57.49,77.13
5674,ФГБУ Сахалинское УГМС,МАКАРОВ - МОРЕ ОХОТСКОЕ,32116,48.62,142.78
1395,ФГБУ Центральное УГМС,МАКАРЬЕВ,27259,57.88611111,43.78527778
4828,ФГБУ Иркутское УГМС,МАКСИМОВО,30219,57.1,104.97
3078,ФГБУ Уральское УГМС,МАКУШИНО,28666,55.25,67.3
5563,ФГБУ Приморское УГМС,МАЛИНОВО,31884,45.25,134.16
5672,ФГБУ Сахалинское УГМС,МАЛОКУРИЛЬСКОЕ - МОРЕ ОХОТСКОЕ,32166,43.88,146.83
165,ФГБУ Центральное УГМС,МАЛОЯРОСЛАВЕЦ,27606,55.02,36.48
2319,ФГБУ Северо-Кавказское УГМС,МАЛЫЕ ДЕРБЕТЫ,34662,47.93333611,44.70000278
3425,ФГБУ Западно-Сибирское УГМС,Мамонтово,29928,52.42,81.37
4563,ФГБУ Забайкальское УГМС,МАНГУТ,30954,49.7,112.67
2320,ФГБУ Северо-Кавказское УГМС,МАРГАРИТОВО,34725,46.93,38.87
4353,ФГБУ Дальневосточное УГМС,МАРИИНСК - Р.АМУР,31502,51.73,140.18
1882,ФГБУ Приволжское УГМС,МАРКС,34173,51.7,46.73
3426,ФГБУ Западно-Сибирское УГМС,Маслянино,29736,54.2,84.13
2321,ФГБУ Северо-Кавказское УГМС,МАТВЕЕВ КУРГАН,34625,47.56666667,38.88333333
5062,ФГБУ Якутское УГМС,МАЧА,30074,59.93333333,117.6
3427,ФГБУ Западно-Сибирское УГМС,Междуреченск,29854,53.38,88.1
2182,ФГБУ Башкирское УГМС,МЕЛЕУЗ,28925,52.93277778,55.91944444
5564,ФГБУ Приморское УГМС,МЕЛЬНИЧНОЕ - Р.БОЛЬШАЯ УССУРКА,31895,45.27,135.3
4564,ФГБУ Забайкальское УГМС,МЕНЗА,30938,49.43,108.85
1926,ФГБУ УГМС Республики Татарстан,МЕНЗЕЛИНСК,28517,55.71861111,53.06944444
3079,ФГБУ Уральское УГМС,МИАСС,28647,55,60.08
2365,ФГБУ Северо-Кавказское УГМС,МИЛЛЕРОВО,34438,48.93333333,40.38333333
5338,ФГБУ Камчатское УГМС,МИЛЬКОВО,32496,54.68333333,158.5666667
3080,ФГБУ Уральское УГМС,МИРНЫЙ,28741,54.55,60.3
1440,ФГБУ Центральное УГМС,МИХАЙЛОВ,27729,54.25,39.03
2741,ФГБУ Северо-Кавказское УГМС,МИХАЙЛОВКА,34352,50.08333333,43.26666667
3081,ФГБУ Уральское УГМС,МИХАЙЛОВСК,28438,56.43,59.08
166,ФГБУ Центрально-Черноземное УГМС,МИЧУРИНСК,27935,52.8833,40.4667
4565,ФГБУ Забайкальское УГМС,МОГЗОН,30843,51.73,112
286,ФГБУ Центральное УГМС,МОЖАЙСК,27509,55.52,36
1623,ФГБУ Верхне-Волжское УГМС,МОЖГА,28409,56.43,52.2
2322,ФГБУ Северо-Кавказское УГМС,МОЗДОК - р. Терек,37145,43.73333333,44.66666667
3428,ФГБУ Западно-Сибирское УГМС,Молчаново,29332,57.35,83.46
4788,ФГБУ Забайкальское УГМС,МОНДЫ,30802,51.68,100.98
5673,ФГБУ Сахалинское УГМС,МОНЕРОН - МОРЕ ЯПОНСКОЕ,31869,46.25,141.27
24,ФГБУ Мурманское УГМС,МОНЧЕГОРСК,22212,67.93,32.95
4354,ФГБУ Дальневосточное УГМС,МОПАУ,31679,49.15,138.9
1624,ФГБУ Верхне-Волжское УГМС,МОРКИ,27498,56.43,49.02
2366,ФГБУ Северо-Кавказское УГМС,МОРОЗОВСК,34545,48.35,41.87
167,ФГБУ Центрально-Черноземное УГМС,МОРШАНСК,27848,53.4333,41.7833
168,ФГБУ Центральное УГМС,МОСАЛЬСК,27704,54.48,35.02
429,ФГБУ Северное УГМС,МОСЕЕВО,22481,65.77,46.2
292,ФГБУ Центральное УГМС,МОСКВА (БАЛЧУГ),27605,55.74555556,37.63000278
295,ФГБУ Центральное УГМС,МОСКВА (ВДНХ),27612,55.83138889,37.62194444
1587,ФГБУ Центральное УГМС,МОСКВА (МИХАЙЛОВСКОЕ),27614,55.36694444,37.20333333
293,ФГБУ Центральное УГМС,МОСКВА (ТУШИНО),27619,55.87833333,37.43666667
4271,ФГБУ Среднесибирское УГМС,МОТЫГИНО,29276,58.18,94.7
3429,ФГБУ Западно-Сибирское УГМС,Мошково,29632,55.19,83.36
2183,ФГБУ Башкирское УГМС,МРАКОВО,28928,52.73194444,56.65361111
3731,ФГБУ Среднесибирское УГМС,МУГУР-АКСЫ,36278,50.3667,90.4333
2853,ФГБУ Обь-Иртышское УГМС,"Мужи - Р. Обь, Протока Малая Обь",23426,65.4075,64.70555556
1625,ФГБУ Верхне-Волжское УГМС,МУРАШИ,27097,59.38,48.98
1883,ФГБУ УГМС Республики Татарстан,МУСЛЮМОВО,28612,55.30944444,53.18444444
431,ФГБУ Северное УГМС,МУТНЫЙ МАТЕРИК,23411,65.95416667,55.14416667
3732,ФГБУ Среднесибирское УГМС,МУТОРАЙ - Р.ЧУНЯ,24807,61.3333,100.47
4566,ФГБУ Забайкальское УГМС,МУХОРШИБИРЬ,30837,51.03,107.82
169,ФГБУ Центрально-Черноземное УГМС,МЦЕНСК,27817,53.38,36.53
170,ФГБУ Центрально-Черноземное УГМС,НАВЛЯ,26996,52.83,34.5
5063,ФГБУ Якутское УГМС,НАГОРНЫЙ,30493,55.94825833,124.9157522
1645,ФГБУ Верхне-Волжское УГМС,НАГОРСК,28007,59.32,50.83
3733,ФГБУ Среднесибирское УГМС,НАЗАРОВО,29561,56.0333,90.3167
3734,ФГБУ Среднесибирское УГМС,НАЗИМОВО - Р.ЕНИСЕЙ,29068,59.5,91.02
2649,ФГБУ Северо-Кавказское УГМС,НАЗРАНЬ,37218,43.15,44.85
2854,ФГБУ Обь-Иртышское УГМС,Называевск,28588,55.56666944,71.36666944
6042,ФГБУ Иркутское УГМС,НАКАННО,24713,62.88,108.43
2777,ФГБУ Северо-Кавказское УГМС,НАЛЬЧИК,37212,43.53333333,43.63333333
5064,ФГБУ Якутское УГМС,НАМЦЫ,24753,62.73,129.65
3430,ФГБУ Западно-Сибирское УГМС,Напас,29023,59.51,81.57
287,ФГБУ Центральное УГМС,НАРО-ФОМИНСК,27611,55.38722222,36.70111111
2323,ФГБУ Северо-Кавказское УГМС,НАУРСКАЯ,37157,43.65,45.31666667
5310,ФГБУ Камчатское УГМС,НАЧИКИ,32539,53.12,157.73
5678,ФГБУ Сахалинское УГМС,НЕВЕЛЬСК - МОРЕ ЯПОНСКОЕ,32145,46.67,141.87
2324,ФГБУ Северо-Кавказское УГМС,НЕВИННОМЫССК - р. Кубань,37036,44.63,41.97
3082,ФГБУ Уральское УГМС,НЕВЬЯНСК,28344,57.5,60.25
4379,ФГБУ Дальневосточное УГМС,НЕЛЬКАН - Р.МАЯ,31152,57.65,136.15
296,ФГБУ Центральное УГМС,НЕМЧИНОВКА,27515,55.70666667,37.37194444
3735,ФГБУ Среднесибирское УГМС,НЕНАСТНАЯ,29752,54.75,88.82
3736,ФГБУ Среднесибирское УГМС,НЕОЖИДАННЫЙ,29858,53.28,89.07
4830,ФГБУ Иркутское УГМС,НЕПА,30037,59.25,108.23
4829,ФГБУ Иркутское УГМС,НЕРОЙ,29794,54.46,97.83
6041,ФГБУ Забайкальское УГМС,НЕРЧИНСК,30768,52,116.53
4567,ФГБУ Забайкальское УГМС,НЕРЧИНСКИЙ З-Д,30879,51.32,119.62
4568,ФГБУ Забайкальское УГМС,НЕСТЕРОВО,30733,52.38,107.87
4267,ФГБУ Обь-Иртышское УГМС,НЕФТЕЮГАНСК - Р.ОБЬ ПР.ЮГАНСКАЯ,23848,61.10111111,72.65444444
8804,ФГБУ Крымское УГМС,НИЖНЕГОРСКИЙ,33962,45.45,34.72
2879,ФГБУ Обь-Иртышское УГМС,НИЖНЕСОРТЫМСКИЙ,23741,62.44361111,71.75555556
6065,ФГБУ Дальневосточное УГМС,НИЖНЕТАМБОВСКОЕ - Р.АМУР,31562,50.92,138.18
3737,ФГБУ Среднесибирское УГМС,НИЖНЕУСИНСКОЕ,36091,52.27,93.02
3083,ФГБУ Уральское УГМС,НИЖНИЙ ТАГИЛ,28240,57.88,60.07
2325,ФГБУ Северо-Кавказское УГМС,НИЖНИЙ ЧИР - вдхр. Цимлянское,34555,48.35,43.12
26,ФГБУ Мурманское УГМС,НИКЕЛЬ,22004,69.4,30.23
770,ФГБУ Северо-Западное УГМС,НИКОЛАЕВСКОЕ,26167,58.57,29.8
1417,ФГБУ Центральное УГМС,НИКОЛО-ПОЛОМА,27252,58.35,43.38
434,ФГБУ Северное УГМС,НИКОЛЬСК,27066,59.53666667,45.43861111
6045,ФГБУ Иркутское УГМС,НОВАЯ ИГИРМА,30218,57.11,103.95
4570,ФГБУ Забайкальское УГМС,НОВАЯ КУРБА,30738,52.05,108.52
771,ФГБУ Северо-Западное УГМС,НОВАЯ ЛАДОГА,22917,60.12,32.32
1311,ФГБУ Северо-Западное УГМС,НОВГОРОД,26179,58.51666389,31.24999722
288,ФГБУ Центральное УГМС,НОВО-ИЕРУСАЛИМ,27511,55.9,36.82
2326,ФГБУ Северо-Кавказское УГМС,НОВОАЛЕКСАНДРОВСК,34944,45.5,41.2
2327,ФГБУ Северо-Кавказское УГМС,НОВОАННИНСКИЙ,34254,50.53333333,42.68333333
3738,ФГБУ Среднесибирское УГМС,НОВОБИРИЛЮССЫ - Р.ЧУЛЫМ,29367,57.07,90.52
186,ФГБУ Центрально-Черноземное УГМС,НОВОВОРОНЕЖ,34126,51.28,39.21
1884,ФГБУ Приволжское УГМС,НОВОДЕВИЧЬЕ,27894,53.6,48.83
9089,ФГБУ Западно-Сибирское УГМС,Новокузнецк,29842,53.54,87.06
4831,ФГБУ Иркутское УГМС,НОВОНУКУТСК,30611,53.7,102.68
4571,ФГБУ Забайкальское УГМС,НОВОСЕЛЕНГИНСК,30829,51.1,106.65
6044,ФГБУ Приморское УГМС,НОВОСЕЛЬСКОЕ,31923,44.7685,132.7055778
1885,ФГБУ Приволжское УГМС,НОВОСЕРГИЕВКА,35015,52.08,53.63
1886,ФГБУ Приволжское УГМС,НОВОУЗЕНСК,34289,50.43,48.13
4832,ФГБУ Иркутское УГМС,НОВОЧУНКА,29590,56.13,99.32
4311,ФГБУ Западно-Сибирское УГМС,Новый Васюган,29203,58.35,76.31
171,ФГБУ Центрально-Черноземное УГМС,НОВЫЙ ОСКОЛ,34213,50.75,37.87
1626,ФГБУ Верхне-Волжское УГМС,НОВЫЙ ТОРЪЯЛ,27491,57,48.73
28012,ФГБУ Сахалинское УГМС,НОГЛИКИ,32053,51.92,143.13
8274,ФГБУ Северо-Кавказское УГМС,НОЖАЙ-ЮРТ,37362,42.86666667,46.33333333
3084,ФГБУ Уральское УГМС,НОЖОВКА,28319,57.08,54.75
1627,ФГБУ Верхне-Волжское УГМС,НОЛИНСК,27393,57.55,49.95
4355,ФГБУ Дальневосточное УГМС,НОРСК - Р.СЕЛЕМДЖА,31388,52.35,129.92
4002,ФГБУ Обь-Иртышское УГМС,"НЫДА - МОРЕ КАРСКОЕ, Р.НЫДА",23345,66.62444444,72.89611389
3125,ФГБУ Уральское УГМС,НЫРОБ,23912,60.73,56.72
5675,ФГБУ Сахалинское УГМС,НЫШ,32054,51.53,142.75
1288,ФГБУ Северное УГМС,НЮКСЕНИЦА,22974,60.41333333,44.2225
3085,ФГБУ Уральское УГМС,НЯЗЕПЕТРОВСК,28533,56.05,59.58
2855,ФГБУ Обь-Иртышское УГМС,НЯКСИМВОЛЬ - Р.СЕBЕРНАЯ СОСЬBА,23724,62.43333333,60.86666667
433,ФГБУ Северное УГМС,НЯНДОМА,22854,61.67000278,40.19527778
172,ФГБУ Центрально-Черноземное УГМС,ОБЛОВКА,34049,52,42.2333
4356,ФГБУ Дальневосточное УГМС,ОБЛУЧЬЕ,31702,49,131.08
173,ФГБУ Центрально-Черноземное УГМС,ОБОЯНЬ,34109,51.2,36.32
435,ФГБУ Северное УГМС,ОБЪЯЧЕВО,22996,60.32861111,49.63555556
6031,ФГБУ Сахалинское УГМС,ОГОНЬКИ,32143,46.78,142.4
2856,ФГБУ Обь-Иртышское УГМС,ОДЕССКОЕ,28797,54.20916944,72.95194444
1888,ФГБУ Приволжское УГМС,ОЗИНКИ,34199,51.2,49.73
3088,ФГБУ Уральское УГМС,ОКТЯБРЬСКИЙ,28429,56.53,57.22
1889,ФГБУ Приволжское УГМС,ОКТЯБРЬСКИЙ ГОРОДОК,34163,51.63,45.45
6198,ФГБУ Дальневосточное УГМС,ОКТЯБРЬСКИЙ ПРИИСК,31373,53,128.65
3087,ФГБУ Уральское УГМС,ОКТЯБРЬСКОЕ,28754,54.42,62.7
2897,ФГБУ Обь-Иртышское УГМС,ОКТЯБРЬСКОЕ - Р.ОБЬ,23734,62.46416667,66.05611111
31551,ФГБУ Северо-Западное УГМС,ОКУЛОВКА,26283,58.37,33.32000278
437,ФГБУ Северное УГМС,ОКУНЕВ НОС,23305,66.2575,52.56416667
3739,ФГБУ Среднесибирское УГМС,ОЛЕНЬЯ РЕЧКА - Р.ОЛЕНЬЯ РЕЧКА,29974,52.8,93.23
4572,ФГБУ Забайкальское УГМС,ОЛОВЯННАЯ,30961,50.95,115.58
5575,ФГБУ Приморское УГМС,ОЛЬГА,31995,43.75319444,135.3116389
2328,ФГБУ Северо-Кавказское УГМС,ОЛЬХОВКА,34362,49.86666667,44.55
3431,ФГБУ Западно-Сибирское УГМС,Онгудай,36231,50.45,86.08
5676,ФГБУ Сахалинское УГМС,ОНОР,32077,50.23,142.58
1628,ФГБУ Верхне-Волжское УГМС,ОПАРИНО,27083,59.85,48.28
3432,ФГБУ Западно-Сибирское УГМС,Ордынское - вдхр. Новосибирское,29726,54.22,81.54
198,ФГБУ Центрально-Черноземное УГМС,ОРЕЛ,27906,52.93,36
4792,ФГБУ Забайкальское УГМС,ОРЛИК,29998,52.5,99.82
4833,ФГБУ Иркутское УГМС,ОРЛИНГА,30328,56.05,105.83
4834,ФГБУ Иркутское УГМС,ОСА,30615,53.4,103.86
3086,ФГБУ Уральское УГМС,ОСА,28324,57.27,55.43
772,ФГБУ Центральное УГМС,ОСТАШКОВ - ОЗ.СЕЛИГЕР,26389,57.11,33.1
3433,ФГБУ Западно-Сибирское УГМС,Остров Дальний - вдхр. Новосибирское,29723,54.28,82.16
5470,ФГБУ Чукотское УГМС,ОСТРОВНОЕ,25138,68.11,164.16
2367,ФГБУ Северо-Кавказское УГМС,ОТРАДНАЯ,37035,44.4,41.48
30499,ФГБУ Сахалинское УГМС,ОХА,32010,53.5,142.9
3089,ФГБУ Уральское УГМС,ОХАНСК,28321,57.72,55.38
773,ФГБУ Северо-Западное УГМС,ОХОНА,27108,58.1,35.63333889
1450,ФГБУ Центральное УГМС,ПАВЕЛЕЦ,27823,53.8,39.23
1629,ФГБУ Верхне-Волжское УГМС,ПАВЛОВО,27555,55.95,43.03
174,ФГБУ Центрально-Черноземное УГМС,ПАВЛОВСК,34237,50.43,40.47
289,ФГБУ Центральное УГМС,ПАВЛОВСКИЙ ПОСАД,27523,55.77,38.68
2857,ФГБУ Обь-Иртышское УГМС,ПАВЛОГРАДКА,28798,54.199725,73.57722222
775,ФГБУ Северо-Западное УГМС,ПАДАНЫ - BДХР.СЕГОЗЕРСКОЕ,22619,63.27,33.42
31575,ФГБУ Камчатское УГМС,ПАЛАНА,32227,59.08333333,159.9666667
5478,ФГБУ Колымское УГМС,Палатка,25907,60.1,150.93
2329,ФГБУ Северо-Кавказское УГМС,ПАЛЛАСОВКА,34373,50.05,46.88333333
3090,ФГБУ Уральское УГМС,ПАМЯТНОЕ,28561,56.02,65.7
4001,ФГБУ Обь-Иртышское УГМС,ПАНГОДЫ - Р.ПРАBАЯ ХЕТТА,23443,65.84888889,74.50805556
4186,ФГБУ Западно-Сибирское УГМС,Парабель,29128,58.42,81.29
5754,ФГБУ Приморское УГМС,ПАРТИЗАНСК - Р.ПАРТИЗАНСКАЯ,31987,43.09,133.01
4852,ФГБУ Иркутское УГМС,ПАТРОНЫ,30718,52.13,104.47
1890,ФГБУ Приволжское УГМС,ПАЧЕЛМА,27858,53.33,43.32
5762,ФГБУ Сахалинское УГМС,ПЕРВОМАЙСК,32092,49.97,143.27
1891,ФГБУ Приволжское УГМС,ПЕРВОМАЙСКИЙ,35008,51.9,51.65
3740,ФГБУ Среднесибирское УГМС,ПЕРВОМАЙСКОЕ,29761,54.5833,90.8667
3434,ФГБУ Западно-Сибирское УГМС,Первомайское,29348,57.04,86.13
1571,ФГБУ Мурманское УГМС,ПЕРЕВАЛ,22009,69.2,31.4
4835,ФГБУ Иркутское УГМС,ПЕРЕВОЗ,30069,59,116.91
1892,ФГБУ Приволжское УГМС,ПЕРЕЛЮБ,35007,51.87,50.33
1474,ФГБУ Центральное УГМС,ПЕРЕСЛАВЛЬ-ЗАЛЕССКИЙ,27425,56.71,38.83
4240,ФГБУ Уральское УГМС,ПЕРМЬ,28224,58,56.33
1893,ФГБУ Приволжское УГМС,ПЕТРОВСК,34063,52.28,45.4
4574,ФГБУ Забайкальское УГМС,ПЕТРОВСКИЙ З-Д,30838,51.32,108.87
4573,ФГБУ Забайкальское УГМС,ПЕТРОПАВЛОВКА,30924,50.62,105.3
439,ФГБУ Северное УГМС,ПЕТРУНЬ,23324,66.47111111,60.75444444
3091,ФГБУ Уральское УГМС,ПЕТУХОВО,28674,55.07,67.88
1332,ФГБУ Центральное УГМС,ПЕТУШКИ,27526,55.93,39.46
3741,ФГБУ Среднесибирское УГМС,ПИРОВСКОЕ,29363,57.6333,92.2667
2858,ФГБУ Обь-Иртышское УГМС,Питляр,23431,65.84138889,65.9125
188,ФГБУ Центральное УГМС,ПЛАВСК,27814,53.65,37.23
5677,ФГБУ Сахалинское УГМС,ПОГРАНИЧНОЕ - МОРЕ ОХОТСКОЕ,32076,50.4,143.77
5567,ФГБУ Приморское УГМС,ПОГРАНИЧНЫЙ - Р.НЕСТЕРОBКА,31915,44.40708333,131.3970583
4836,ФГБУ Иркутское УГМС,ПОДВОЛОЧНОЕ,30418,55.2,103.37
3496,ФГБУ Западно-Сибирское УГМС,Подгорное,29237,57.47,82.4
4575,ФГБУ Забайкальское УГМС,ПОКРОВКА,30688,53.35,121.55
3742,ФГБУ Среднесибирское УГМС,ПОЛИГУС,23789,62,94.65
3092,ФГБУ Уральское УГМС,ПОЛОВИННОЕ,28668,54.77,66
2859,ФГБУ Обь-Иртышское УГМС,ПОЛТАВКА,28786,54.35611389,71.76611389
5568,ФГБУ Приморское УГМС,ПОЛТАВКА,31917,44.02625,131.3247778
2860,ФГБУ Обь-Иртышское УГМС,ПОЛУЙ - Р.ПОЛУЙ,23339,66.03527778,68.66944444
1221,ФГБУ Северное УГМС,ПОМОЗДИНО,23709,62.19388889,54.18638889
175,ФГБУ Центрально-Черноземное УГМС,ПОНЫРИ,34003,52.32,36.3
1630,ФГБУ Верхне-Волжское УГМС,ПОРЕЦКОЕ,27675,55.18,46.33
3435,ФГБУ Западно-Сибирское УГМС,Посевная,29735,54.18,83.19
3436,ФГБУ Западно-Сибирское УГМС,Поспелиха,36032,52,81.5
3983,ФГБУ Среднесибирское УГМС,ПОТАПОВО - Р.ЕНИСЕЙ,23174,68.6667,86.25
777,ФГБУ Центральное УГМС,ПОЧИНОК,26784,54.42,32.43
8807,ФГБУ Крымское УГМС,ПОЧТОВОЕ,33945,44.83,33.95
1476,ФГБУ Центральное УГМС,ПОШЕХОНЬЕ,27223,58.48,39.13
4357,ФГБУ Дальневосточное УГМС,ПОЯРКОВО - Р.АМУР ПРОТОКА ПОЯРКОBСКАЯ,31587,49.62,128.65
5569,ФГБУ Приморское УГМС,ПРЕОБРАЖЕНИЕ,31989,42.90047222,133.8921389
6119,ФГБУ Иркутское УГМС,ПРЕОБРАЖЕНКА,24918,60.05,108.08
4613,ФГБУ Забайкальское УГМС,ПРИАРГУНСК,30975,50.34927778,119.0797778
1358,ФГБУ Центральное УГМС,ПРИВОЛЖСК,27344,57.38,41.27
3437,ФГБУ Западно-Сибирское УГМС,Промышленная,29644,54.54,85.37
2330,ФГБУ Северо-Кавказское УГМС,ПРОХЛАДНАЯ - р. Малка,37144,43.75,44.05
3438,ФГБУ Западно-Сибирское УГМС,Прохоркино,29016,59.31,79.28
2803,ФГБУ Северо-Кавказское УГМС,ПСЕБАЙ,37028,44.11666667,40.81666667
1894,ФГБУ Приволжское УГМС,ПУГАЧЕВ,34098,52.03,48.83
3480,ФГБУ Западно-Сибирское УГМС,Пудино,29313,57.34,79.26
438,ФГБУ Северное УГМС,ПУСТОШЬ,23807,61.10638889,50.26388889
778,ФГБУ Северо-Западное УГМС,ПУШКИНСКИЕ ГОРЫ,26359,57.02,28.9
5311,ФГБУ Камчатское УГМС,ПУЩИНО,32497,54.18,158.02
1391,ФГБУ Центральное УГМС,ПЫЩУГ,27174,58.88,45.71
1895,ФГБУ Приволжское УГМС,РАДИЩЕВО,27972,53.05,46.43
4269,ФГБУ Обь-Иртышское УГМС,РАДУЖНЫЙ,23758,62.12805556,77.425
2184,ФГБУ Башкирское УГМС,РАЕВСКИЙ,28710,54.06361111,54.92777778
8808,ФГБУ Крымское УГМС,РАЗДОЛЬНОЕ,33922,45.78,33.48
779,ФГБУ Северо-Западное УГМС,РЕБОЛЫ - ОЗ.ЛЕКСА,22602,63.83,30.82
3479,ФГБУ Западно-Сибирское УГМС,Ребриха,29923,53.05,82.2
3093,ФГБУ Уральское УГМС,РЕВДА,28430,56.88,59.98
2331,ФГБУ Северо-Кавказское УГМС,РЕМОНТНОЕ,34759,46.57,43.67
3439,ФГБУ Западно-Сибирское УГМС,Родино,36020,52.29,80.11
4615,ФГБУ Забайкальское УГМС,РОМАНОВКА,30650,53.2,112.78
780,ФГБУ Центральное УГМС,РОСЛАВЛЬ,26882,53.93,32.83
1896,ФГБУ Приволжское УГМС,РОСТАШИ,34059,51.87,43.58
1479,ФГБУ Центральное УГМС,РОСТОВ,27329,57.2,39.41
2645,ФГБУ Северо-Кавказское УГМС,РОСТОВ-НА-ДОНУ,34630,47.25,39.82
5757,ФГБУ Приморское УГМС,РОЩИНО,31943,44.54,134.53
2332,ФГБУ Северо-Кавказское УГМС,РОЩИНО,37077,44.15,45.2
1897,ФГБУ Приволжское УГМС,РТИЩЕВО,34056,52.25,43.78
3497,ФГБУ Западно-Сибирское УГМС,Рубцовск,36034,51.35,81.12
2758,ФГБУ Северо-Кавказское УГМС,РУДНЯ,34262,50.83333333,44.56666667
4179,ФГБУ Обь-Иртышское УГМС,РУССКАЯ ПОЛЯНА,28895,53.78333333,73.88333333
176,ФГБУ Центрально-Черноземное УГМС,РЫЛЬСК,33166,51.57,34.68
1460,ФГБУ Центральное УГМС,РЯЖСК,27835,53.7,40.12
177,ФГБУ Центрально-Черноземное УГМС,С/Х ИМ.ЛЕНИНА,34036,52.1833,40.85
34538,ФГБУ Обь-Иртышское УГМС,Салехард М-II,23330,66.53194444,66.67444444
2862,ФГБУ Обь-Иртышское УГМС,САЛЫМ - Р.BАНДРАС,23947,60.05638889,71.45694444
5570,ФГБУ Приморское УГМС,САМАРКА - Р.ОТКОСНАЯ,31942,44.45,134.12
4576,ФГБУ Забайкальское УГМС,САНАГА,30911,50.72,102.78
1644,ФГБУ Верхне-Волжское УГМС,САНЧУРСК,27480,56.98,47.32
1445,ФГБУ Центральное УГМС,САРАИ,27836,53.47,41.21
2863,ФГБУ Обь-Иртышское УГМС,САРАНПАУЛЬ - Р.ЛЯПИН,23527,64.25277778,60.93055556
1650,ФГБУ Верхне-Волжское УГМС,САРАНСК,27760,54.13,45.25
1631,ФГБУ Верхне-Волжское УГМС,САРАПУЛ,28418,56.47,53.73
7934,ФГБУ Приволжское УГМС,САРАТОВ ЮГО-ВОСТОК,34178,51.57,46
2864,ФГБУ Обь-Иртышское УГМС,САРГАТСКОЕ,28598,55.62333333,73.492225
4838,ФГБУ Иркутское УГМС,САРМА,30620,53.1,106.83
3743,ФГБУ Среднесибирское УГМС,САРЫГ-СЕП - Р.МАЛЫЙ ЕНИСЕЙ(КАА-ХЕМ),36104,51.5,95.5667
4358,ФГБУ Дальневосточное УГМС,САСКАЛЬ - Р.БЕРЕЯ,31441,51.65,126.92
782,ФГБУ Центральное УГМС,САФОНОВО,26686,55.1,33.23
6210,ФГБУ Иркутское УГМС,САЯНСК,30509,54.05,102.11
2333,ФГБУ Северо-Кавказское УГМС,СВЕТЛОГРАД - р. Калаус,34954,45.35,42.85
3744,ФГБУ Среднесибирское УГМС,СВЕТЛОЛОБОВО,29664,55.1,90.8333
5571,ФГБУ Приморское УГМС,СВИЯГИНО - Р.СОРОЧЕBКА,31931,44.48,133.05
6199,ФГБУ Дальневосточное УГМС,СВОБОДНЫЙ,31445,51.45,128.11
8238,ФГБУ Якутское УГМС,СЕБЯН-КЮЕЛЬ,24462,65.3,130
4185,ФГБУ Западно-Сибирское УГМС,Северное,29418,56.2,78.22
4272,ФГБУ Среднесибирское УГМС,СЕВЕРО-ЕНИСЕЙСКИЙ,23986,60.38,93.03
4221,ФГБУ Уральское УГМС,СЕВЕРОУРАЛЬСК,23919,60.23,59.98
1592,ФГБУ Северо-Западное УГМС,СЕГЕЖА,22621,63.77,34.28
5065,ФГБУ Якутское УГМС,СЕГЕН-КЮЕЛЬ,24661,64,130.3
4359,ФГБУ Дальневосточное УГМС,СЕГЖЕМА,31566,50.35,138.4
2877,ФГБУ Обь-Иртышское УГМС,СЕДЕЛЬНИКОВО,29401,56.94666667,75.30722222
4360,ФГБУ Дальневосточное УГМС,СЕКТАГЛИ - ВДХР.БУРЕЙСКОЕ,31534,50.43,131.02
1632,ФГБУ Верхне-Волжское УГМС,СЕЛТЫ,28309,57.3,52.15
1633,ФГБУ Верхне-Волжское УГМС,СЕМЕНОВ,27462,56.73,44.52
2397,ФГБУ Северо-Кавказское УГМС,СЕМИКАРАКОРСК,34636,47.52,40.83
1898,ФГБУ Приволжское УГМС,СЕНГИЛЕЙ,27891,53.97,48.8
1634,ФГБУ Верхне-Волжское УГМС,СЕРГАЧ,27577,55.53,45.5
4361,ФГБУ Дальневосточное УГМС,СЕРГЕЕВКА - Р.АМУР,31511,50.78,127.3
2360,ФГБУ Северо-Кавказское УГМС,СЕРГОКАЛА,37475,42.45,47.66666667
1899,ФГБУ Приволжское УГМС,СЕРНОВОДСК,28802,53.92,51.27
8738,ФГБУ Северо-Кавказское УГМС,СЕРНОВОДСКАЯ,37232,43.31666667,45.15
3095,ФГБУ Уральское УГМС,СЕРОВ,28044,59.6,60.53
290,ФГБУ Центральное УГМС,СЕРПУХОВ,27618,54.93,37.47
1290,ФГБУ Северное УГМС,СЕЯХА,20967,70.17000278,72.51361111
2648,ФГБУ Башкирское УГМС,СИБАЙ,28937,52.70555556,58.68666667
8816,ФГБУ Крымское УГМС,СИМФЕРОПОЛЬ,33955,44.95333611,34.12000278
4383,ФГБУ Дальневосточное УГМС,СКОВОРОДИНО - Р.БОЛЬШОЙ НЕBЕР,30692,54,123.97
2334,ФГБУ Северо-Кавказское УГМС,"СЛАВЯНСК-НА-КУБАНИ - МОРЕ АЗОВСКОЕ, Р.КУБАНЬ РУК.ПРОТОКА",34924,45.28,38.12
2866,ФГБУ Обь-Иртышское УГМС,СЛАДКОВО - ОЗ.ПРЕСНОЕ,28587,55.52527778,70.352225
5312,ФГБУ Камчатское УГМС,СЛАУТНОЕ,25648,63.2,167.85
4362,ФГБУ Дальневосточное УГМС,СМИДОВИЧ - р. Большой Ин,31725,48.6,133.83
10257,ФГБУ Центральное УГМС,СМОЛЕНСК,26781,54.53967591,32.22839355
3745,ФГБУ Среднесибирское УГМС,СОВЕТСКАЯ РЕЧКА - Р.СОBЕТСКАЯ РЕЧКА,23363,66.82,83.8
5066,ФГБУ Якутское УГМС,СОГО-ХАЯ,24557,64.28,126.45
4363,ФГБУ Дальневосточное УГМС,СОЛЕКУЛЬ,31677,49.17,138.05
4840,ФГБУ Иркутское УГМС,СОЛНЕЧНАЯ,30537,54.03,108.26
4577,ФГБУ Забайкальское УГМС,СОЛОВЬЕВСК,30967,49.9,115.75
3498,ФГБУ Западно-Сибирское УГМС,Солонешное,36045,51.38,84.2
1900,ФГБУ Приволжское УГМС,СОЛЬ-ИЛЕЦК,35120,51.15,55.02
1901,ФГБУ Приволжское УГМС,СОРОЧИНСК,35011,52.43,53.13
799,ФГБУ Северо-Западное УГМС,СОРТАВАЛА,22802,61.72,30.72
3746,ФГБУ Среднесибирское УГМС,СОСНОВКА,36099,51.15,94.5167
783,ФГБУ Северо-Западное УГМС,СОСНОВО,22891,60.55,30.32
8256,ФГБУ Северо-Западное УГМС,СОСНОВЫЙ БОР-ЛАЭС-2 - ЗАЛ.ФИНСКИЙ,26071,59.81,29.16
2336,ФГБУ Северо-Кавказское УГМС,СОСЫКА,34834,46.13333333,39.83333333
4364,ФГБУ Дальневосточное УГМС,СОФИЙСКИЙ ПРИИСК,31478,52.27,133.98
2637,ФГБУ СЦГМС ЧАМ,СОЧИ,37099,43.57769444,39.75986111
178,ФГБУ Центральное УГМС,СПАС-ДЕМЕНСК,26795,54.42,34.02
1902,ФГБУ Приволжское УГМС,СПЛАВНУХА,34169,51.07,45.38
5771,ФГБУ Якутское УГМС,СРЕДНЕКОЛЫМСК,25206,67.45,153.7166667
3440,ФГБУ Западно-Сибирское УГМС,Средний Васюган,29111,59.13,78.14
4579,ФГБУ Забайкальское УГМС,СРЕДНЯЯ ОЛЕКМА,30484,55.43,120.55
3441,ФГБУ Западно-Сибирское УГМС,Старица,29224,58.09,80.35
784,ФГБУ Центральное УГМС,СТАРИЦА,26499,56.48,34.92
1434,ФГБУ Центральное УГМС,СТАРОЖИЛОВО,27734,54.27,39.97
2337,ФГБУ Северо-Кавказское УГМС,СТАРОМИНСКАЯ,34729,46.53333333,39.01666667
4214,ФГБУ Западно-Сибирское УГМС,Степановка,29149,58.38,86.44
4365,ФГБУ Дальневосточное УГМС,СТОЙБА - Р.СЕЛЕМДЖА,31392,52.8,131.72
3747,ФГБУ Среднесибирское УГМС,СТРЕЛКА - Р.ЕНИСЕЙ,29274,58.08,93
3748,ФГБУ Среднесибирское УГМС,СТРЕЛКА ЧУНЯ - Р.ЧУНЯ,24802,61.75,102.8
785,ФГБУ Северо-Западное УГМС,СТРУГИ КРАСНЫЕ,26264,58.16,29.06
179,ФГБУ Центральное УГМС,СУВОРОВ,27717,54.13,36.53
3476,ФГБУ Западно-Сибирское УГМС,Сузун,29823,53.46,82.19
4366,ФГБУ Дальневосточное УГМС,СУКПАЙ - Р.СУКПАЙ,31815,47.7,137.5
2361,ФГБУ Северо-Кавказское УГМС,"СУЛАК, ВЫСОКОГОРНАЯ",37461,42.37,46.25
5067,ФГБУ Якутское УГМС,СУОН-ТИТ,30198,58.07,123.72
786,ФГБУ Северо-Западное УГМС,СУОЯРВИ - ОЗ.СУОЯРBИ,22717,62.1,32.38
440,ФГБУ Северное УГМС,СУРА,22676,63.57888889,45.62333611
1903,ФГБУ Приволжское УГМС,СУРСКОЕ,27776,54.48,46.7
5068,ФГБУ Якутское УГМС,СУХАНА,24136,68.61666667,118.3333333
4789,ФГБУ Забайкальское УГМС,СУХАЯ,30726,52.55,107.1
3749,ФГБУ Среднесибирское УГМС,СУХОБУЗИМСКОЕ,29477,56.5,93.2833
787,ФГБУ Северо-Западное УГМС,СУЩЕВО,26462,57,29.89999722
1910,ФГБУ Приволжское УГМС,СЫЗРАНЬ,27983,53.18,48.4
8449,ФГБУ Северное УГМС,СЫКТЫВКАР,23804,61.67722222,50.78472222
3750,ФГБУ Среднесибирское УГМС,СЫМ - Р.СЫМ,23975,60.35,88.37
3096,ФГБУ Уральское УГМС,СЫСЕРТЬ,28448,56.5,60.82
2867,ФГБУ Обь-Иртышское УГМС,СЫТОМИНО - Р.ОБЬ ПРОТОКА СЫТОМИНКА,23847,61.30194444,71.30194444
3097,ФГБУ Уральское УГМС,ТАБОРЫ,28158,58.53,64.5
3127,ФГБУ Уральское УГМС,"ТАВДА, БЕЛЫЙ ЯР",28264,58.07,65.27
3442,ФГБУ Западно-Сибирское УГМС,Тайга,29541,56.04,85.37
4841,ФГБУ Иркутское УГМС,ТАЙШЕТ,29594,55.95,98
5471,ФГБУ Колымское УГМС,Талая,25808,61.13,152.38
3443,ФГБУ Западно-Сибирское УГМС,Тальменка,29832,53.49,83.35
4843,ФГБУ Иркутское УГМС,ТАНГУЙ,30405,55.38,101.03
4790,ФГБУ Забайкальское УГМС,ТАНХОЙ,30824,51.55,105.1
4609,ФГБУ Забайкальское УГМС,ТАРБАГАТАЙ,30826,51.48,107.37
3773,ФГБУ Среднесибирское УГМС,ТАСЕЕВО,29379,57.2,94.55
3444,ФГБУ Западно-Сибирское УГМС,Татарск,29605,55.13,76.01
2868,ФГБУ Обь-Иртышское УГМС,ТАУРОВО - Р.БОЛЬШОЙ ЮГАН,28097,59.58555556,73.28888889
3499,ФГБУ Западно-Сибирское УГМС,Таштагол,29954,52.46,87.52
3751,ФГБУ Среднесибирское УГМС,ТАШТЫП - Р.ТАШТЫП,29956,52.8,89.8833
8278,ФГБУ Центральное УГМС,ТВЕРЬ,27402,56.88,35.87
2353,ФГБУ Северо-Кавказское УГМС,ТЕБЕРДА,37193,43.45000278,41.73333333
4175,ФГБУ Обь-Иртышское УГМС,Тевриз,28383,57.51444722,72.37028056
3500,ФГБУ Западно-Сибирское УГМС,Тегульдет,29355,57.18,88.09
5069,ФГБУ Якутское УГМС,ТЕГЮЛТЯ,24967,60.47,130
3752,ФГБУ Среднесибирское УГМС,ТЕМБЕНЧИ - Р.ТЕМБЕНЧИ,23499,64.95,98.9
1642,ФГБУ Верхне-Волжское УГМС,ТЕМНИКОВ,27752,54.63,43.23
2363,ФГБУ Северо-Кавказское УГМС,ТЕРЕКЛИ-МЕКТЕБ,37079,44.13333333,45.88333333
5760,ФГБУ Приморское УГМС,ТЕРНЕЙ,31909,45,136.36
8239,ФГБУ Северо-Кавказская ВС,ТЕРСКОЛ,37204,43.25,42.51
2766,ФГБУ УГМС Республики Татарстан,ТЕТЮШИ,27697,54.94805556,48.79111111
4367,ФГБУ Дальневосточное УГМС,ТИВЯКУ - Р.ХОР,31754,48.6,137.05
180,ФГБУ Центрально-Черноземное УГМС,ТИМ,34112,51.62,37.13
2781,ФГБУ Северо-Кавказское УГМС,ТИМАШЕВСК,34922,45.63333333,38.93333333
3445,ФГБУ Западно-Сибирское УГМС,Тисуль,29557,55.45,88.18
2338,ФГБУ Северо-Кавказское УГМС,ТИХОРЕЦК,34838,45.85,40.08
2362,ФГБУ Северо-Кавказское УГМС,ТЛЯРАТА,37468,42.12,46.35
3446,ФГБУ Западно-Сибирское УГМС,Тогул,29848,53.28,85.56
3447,ФГБУ Западно-Сибирское УГМС,Тогучин,29636,55.13,84.22
6043,ФГБУ Иркутское УГМС,ТОКМА,30127,58.23,105.73
5071,ФГБУ Якутское УГМС,ТОКО,31137,56.28,131.13
4842,ФГБУ Иркутское УГМС,ТОМПА,30439,55.11666667,109.75
5072,ФГБУ Якутское УГМС,ТОМПО,24671,63.95,135.8666667
8348,ФГБУ Западно-Сибирское УГМС,Томск,29430,56.3,84.55
5070,ФГБУ Якутское УГМС,ТОНГУЛАХ,24843,61.92,124.55
3753,ФГБУ Среднесибирское УГМС,ТООРА-ХЕМ - Р.БОЛЬШОЙ ЕНИСЕЙ(УЛУ-ХЕМ),36103,52.4667,96.1
3448,ФГБУ Западно-Сибирское УГМС,Топки,29641,55.16,85.36
1635,ФГБУ Верхне-Волжское УГМС,ТОРБЕЕВО,27758,54.08,43.25
826,ФГБУ Центральное УГМС,ТОРЖОК,27401,57.03,35.01
788,ФГБУ Центральное УГМС,ТОРОПЕЦ,26479,56.48,31.63
1227,ФГБУ Северное УГМС,ТОТЬМА,27051,59.88,42.75
3098,ФГБУ Уральское УГМС,ТРОИЦК,28748,54.08,61.62
4582,ФГБУ Забайкальское УГМС,ТРОИЦКИЙ ПРИИСК,30555,54.58,113.15
1289,ФГБУ Северное УГМС,ТРОИЦКО-ПЕЧОРСК,23711,62.7325,56.19305556
3449,ФГБУ Западно-Сибирское УГМС,Троицкое,29936,52.58,84.41
6066,ФГБУ Дальневосточное УГМС,ТРОИЦКОЕ - Р.АМУР,31655,49.45,136.56
1904,ФГБУ Приволжское УГМС,"ТРОИЦКОЕ, А",28817,53.33,52.82
1905,ФГБУ Приволжское УГМС,"ТРОИЦКОЕ,Т",35022,52.33,56.37
181,ФГБУ Центрально-Черноземное УГМС,ТРУБЧЕВСК,26997,52.58,33.77
3099,ФГБУ Уральское УГМС,ТУГУЛЫМ,28359,57.07,64.67
2186,ФГБУ Башкирское УГМС,ТУКАН,28823,53.86,57.41
201,ФГБУ Центральное УГМС,ТУЛА,27719,54.23,37.62
1431,ФГБУ Центральное УГМС,ТУМА,27636,55.13,40.55
4368,ФГБУ Дальневосточное УГМС,ТУМНИН - Р.ТУМНИН,31683,49.65,140.08
6191,ФГБУ Забайкальское УГМС,ТУНГОКОЧЕН,30664,53.53,115.62
4791,ФГБУ Забайкальское УГМС,ТУНКА,30811,51.73,102.53
5073,ФГБУ Якутское УГМС,ТУОЙ-ХАЯ,24725,62.53,111.23
4583,ФГБУ Забайкальское УГМС,ТУПИК,30576,54.43,119.9
3754,ФГБУ Среднесибирское УГМС,ТУРАН,36092,52.1333,93.9167
3128,ФГБУ Уральское УГМС,ТУРИНСК,28255,58.05,63.68
3100,ФГБУ Уральское УГМС,ТУРИНСКАЯ СЛОБОДА,28353,57.62,64.4
3450,ФГБУ Западно-Сибирское УГМС,Турочак,36061,52.15,87.08
441,ФГБУ Северное УГМС,ТУРЧАСОВО,22648,63.11083333,39.23694444
1475,ФГБУ Центральное УГМС,ТУТАЕВ,27229,57.9,39.53
3755,ФГБУ Среднесибирское УГМС,ТУТОНЧАНЫ,23589,64.2,93.7833
4369,ФГБУ Дальневосточное УГМС,ТЫГДА,31299,53.1,126.35
4844,ФГБУ Иркутское УГМС,ТЫРКА,30526,54.48,107.07
3756,ФГБУ Среднесибирское УГМС,ТЭЭЛИ,36078,51.02,90.2
2869,ФГБУ Обь-Иртышское УГМС,Тюкалинск,28586,55.86861111,72.21666667
3757,ФГБУ Среднесибирское УГМС,ТЮХТЕТ - Р.ТЮХТЕТ,29456,56.5333,89.3167
3451,ФГБУ Западно-Сибирское УГМС,Тяжин,29552,56.07,88.31
5074,ФГБУ Якутское УГМС,ТЯНЯ,30173,59,119.8
4584,ФГБУ Забайкальское УГМС,УАКИТ,30455,55.48,113.62
3452,ФГБУ Западно-Сибирское УГМС,Убинское,29613,55.18,79.38
3381,ФГБУ Обь-Иртышское УГМС,УВАТ - Р.ИРТЫШ,28172,59.16666944,68.91666944
5075,ФГБУ Якутское УГМС,УГИНО,31016,58.63,128.5
1480,ФГБУ Центральное УГМС,УГЛИЧ,27321,57.5,38.3
3453,ФГБУ Западно-Сибирское УГМС,Угловское,36028,51.22,80.12
2870,ФГБУ Обь-Иртышское УГМС,Угут - Р. Большой Юган,23946,60.51138889,74.04388889
4370,ФГБУ Дальневосточное УГМС,УДИНСКОЕ - Р.АМГУНЬ,31423,52.92,138.85
4371,ФГБУ Дальневосточное УГМС,УДСКОЕ - Р.УДА,31285,54.5,134.42
5761,ФГБУ Колымское УГМС,Уега,24982,60.72,142.78
3454,ФГБУ Западно-Сибирское УГМС,Ужаниха,29722,54.4,81.02
3758,ФГБУ Среднесибирское УГМС,УЖУР СТ.Ж.Д.,29653,55.3,89.8167
4845,ФГБУ Иркутское УГМС,УЗУР,30637,53.32,107.73
3759,ФГБУ Среднесибирское УГМС,УЙБАТ СТ.Ж.Д.,29864,53.72,90.37
4585,ФГБУ Забайкальское УГМС,УЛЕТЫ,30846,51.35,112.47
2187,ФГБУ Башкирское УГМС,УЛУ-ТЕЛЯК,28629,54.9,56.95
183,ФГБУ Центрально-Черноземное УГМС,УНЕЧА,26985,52.83,32.67
1636,ФГБУ Верхне-Волжское УГМС,УНИ,28302,57.75,51.5
4610,ФГБУ Забайкальское УГМС,УОЯН,30348,56.13,111.62
27,ФГБУ Мурманское УГМС,УРА-ГУБА,22018,69.28,32.8
1643,ФГБУ Верхне-Волжское УГМС,УРЖУМ,28307,57.12,50
4372,ФГБУ Дальневосточное УГМС,УРМИ - Р.БЕРЕНДЖА,31624,49.4,133.23
8456,ФГБУ Северо-Кавказское УГМС,УРУС-МАРТАН,37236,43.06666667,45.35
4586,ФГБУ Забайкальское УГМС,УРЮПИНО,30781,52.75,120.03
2642,ФГБУ Северо-Кавказское УГМС,УРЮПИНСК,34240,50.8,42
442,ФГБУ Северное УГМС,УСТЬ-ВЫМЬ,23707,62.22777778,50.41638889
4590,ФГБУ Забайкальское УГМС,УСТЬ-ДЖИЛИНДА,30643,53.67,111.95
6227,ФГБУ Иркутское УГМС,УСТЬ-ИЛИМСК,30210,57.98,102.68
4176,ФГБУ Обь-Иртышское УГМС,УСТЬ-ИШИМ - Р.ИРТЫШ,28382,57.70666667,71.16277778
3455,ФГБУ Западно-Сибирское УГМС,Усть-Кабырза,29955,52.49,88.27
3456,ФГБУ Западно-Сибирское УГМС,Усть-Калманка,36044,52.07,83.23
3760,ФГБУ Среднесибирское УГМС,УСТЬ-КАМО - Р.ПОДКАМЕННАЯ ТУНГУСКА,23992,60.7167,97.5167
3457,ФГБУ Западно-Сибирское УГМС,Усть-Кан,36213,50.56,84.45
4592,ФГБУ Забайкальское УГМС,УСТЬ-КАРЕНГА,30565,54.43,116.53
4617,ФГБУ Забайкальское УГМС,УСТЬ-КАРСК,30772,52.7,118.8
3458,ФГБУ Западно-Сибирское УГМС,Усть-Кокса,36229,50.16,85.37
1218,ФГБУ Северное УГМС,УСТЬ-КУЛОМ,23803,61.69944444,53.695
2339,ФГБУ Северо-Кавказское УГМС,УСТЬ-ЛАБИНСК,34937,45.23333333,39.73333333
5076,ФГБУ Якутское УГМС,УСТЬ-МОМА,24382,66.45027778,143.2216667
4373,ФГБУ Дальневосточное УГМС,УСТЬ-НЮКЖА - Р.ОЛЕКМА,30385,56.58,121.5
3459,ФГБУ Западно-Сибирское УГМС,Усть-Озерное,29154,58.53,87.45
5256,ФГБУ Якутское УГМС,УСТЬ-ОЛЕНЕК,21711,73,119.87
5769,ФГБУ Иркутское УГМС,УСТЬ-ОРДЫНСКИЙ,30713,52.81,104.76
3460,ФГБУ Западно-Сибирское УГМС,Усть-Тарка,29500,55.34,75.41
6120,ФГБУ Иркутское УГМС,УСТЬ-УДА,30514,54.16,103.01
4374,ФГБУ Дальневосточное УГМС,УСТЬ-УМАЛЬТА - Р.БУРЕЯ,31474,51.63,133.27
445,ФГБУ Северное УГМС,УСТЬ-УСА,23412,65.98444444,56.90555556
3761,ФГБУ Среднесибирское УГМС,УСТЬ-УСА - BДХР.САЯНО-ШУШЕНСКОЕ,36083,51.95,92.22
5342,ФГБУ Камчатское УГМС,УСТЬ-ХАЙРЮЗОВО,32287,57.08,156.7
5077,ФГБУ Якутское УГМС,УСТЬ-ЧАРКЫ,24371,66.8,136.68
3461,ФГБУ Западно-Сибирское УГМС,Усть-Чарышская Пристань,36041,52.24,83.41
3101,ФГБУ Уральское УГМС,УСТЬ-ЧЕРНАЯ,23905,60.47,52.63
443,ФГБУ Северное УГМС,УСТЬ-ЩУГОР,23518,64.27,57.62
5078,ФГБУ Якутское УГМС,УСТЬ-ЮДОМА,31054,59.18,135.15
444,ФГБУ Северное УГМС,УСТЮЖНА,27106,58.83222222,36.46333333
4587,ФГБУ Забайкальское УГМС,УСУГЛИ,30764,52.65,115.17
2340,ФГБУ Северо-Кавказское УГМС,УТТА,34871,46.36666667,46.01666667
2188,ФГБУ Башкирское УГМС,УЧАЛЫ,28736,54.36,59.43
3462,ФГБУ Западно-Сибирское УГМС,Учебная,29637,54.58,82.54
6122,ФГБУ Якутское УГМС,УЧУР,31026,58.73,130.62
4593,ФГБУ Забайкальское УГМС,УЮ,30456,55.58,114.5
3762,ФГБУ Среднесибирское УГМС,УЯР - Р.УЯРКА,29576,55.8,94.3333
1637,ФГБУ Верхне-Волжское УГМС,ФАЛЕНКИ,28202,58.35,51.57
184,ФГБУ Центрально-Черноземное УГМС,ФАТЕЖ,34005,52.08,35.87
6071,ФГБУ Дальневосточное УГМС,ФЕВРАЛЬСК - р. Бысса,31397,52.45,130.87
2189,ФГБУ Башкирское УГМС,ФЕДОРОВКА,28826,53.16,55.18
2341,ФГБУ Северо-Кавказское УГМС,ФРОЛОВО,34356,49.8,43.66666667
5079,ФГБУ Якутское УГМС,ХАБАРДИНО,24525,64.6,112.52
3501,ФГБУ Западно-Сибирское УГМС,Хабары,29816,53.37,79.33
4846,ФГБУ Иркутское УГМС,ХАДАМА,29892,53.95,98.81
2871,ФГБУ Обь-Иртышское УГМС,ХАЛЯСАВЭЙ - Р.ЕРКАЛ-НАДЕЙ-ПУР,23656,63.38416667,78.32361111
4847,ФГБУ Иркутское УГМС,ХАМАКАР,24718,62.17,108.22
4848,ФГБУ Иркутское УГМС,ХАМАР-ДАБАН,30815,51.53,103.6
4611,ФГБУ Забайкальское УГМС,ХАМНИГАДАЙСКАЯ,30929,50.12,107.45
34539,ФГБУ Обь-Иртышское УГМС,Ханты-Мансийск М-II,23933,61.02833333,69.11805556
2342,ФГБУ Северо-Кавказское УГМС,"ХАРАБАЛИ - р. Bолга, рук. Ашулук",34687,47.4,47.25
2364,ФГБУ Северо-Кавказское УГМС,ХАСАВЮРТ,37248,43.25,46.58333333
5080,ФГБУ Якутское УГМС,ХАТЫРЫК-ХОМО,24643,63.95,124.83
1906,ФГБУ Приволжское УГМС,ХВАЛЫНСК,34083,52.5,48.08
4594,ФГБУ Забайкальское УГМС,ХИЛОК,30844,51.37,110.47
3763,ФГБУ Среднесибирское УГМС,ХОВУ-АКСЫ - Р.ЭЛЕГЕСТ,36090,51.1167,93.8333
789,ФГБУ Северо-Западное УГМС,ХОЛМ - Р.ЛОBАТЬ,26378,57.15,31.18
446,ФГБУ Северное УГМС,ХОЛМОГОРЫ,22559,64.22388889,41.64666667
447,ФГБУ Северное УГМС,ХОРЕЙ ВЕР,23215,67.42083333,58.04444444
4614,ФГБУ Забайкальское УГМС,ХОРИНСК,30739,52.17,109.78
5573,ФГБУ Приморское УГМС,ХОРОЛЬ,31924,44.26,132.04
4849,ФГБУ Иркутское УГМС,ХУЖИР,30629,53.2,107.33
4375,ФГБУ Дальневосточное УГМС,ХУЛАРИН,31484,51.42,135.08
2745,ФГБУ Северо-Кавказское УГМС,ХУНЗАХ,37369,42.57,46.7
4596,ФГБУ Забайкальское УГМС,ЦАКИР,30915,50.43,103.6
3102,ФГБУ Уральское УГМС,ЦЕЛИННОЕ,28752,54.5,63.67
3502,ФГБУ Западно-Сибирское УГМС,Целинное,29941,53.05,85.37
3463,ФГБУ Западно-Сибирское УГМС,Центральный Рудник,29654,55.12,87.39
6067,ФГБУ Дальневосточное УГМС,ЦИММЕРМАНОВКА - Р.АМУР,31504,51.33,139.28
3764,ФГБУ Среднесибирское УГМС,ЧАДАН,36087,51.2833,91.5833
3113,ФГБУ Уральское УГМС,ЧАЙКОВСКИЙ,28413,56.75,54.08
3464,ФГБУ Западно-Сибирское УГМС,Чаны,29602,55.19,76.45
449,ФГБУ Северное УГМС,ЧАРОЗЕРО,22944,60.47,38.62
3465,ФГБУ Западно-Сибирское УГМС,Чарышское,36047,51.23,83.35
5537,ФГБУ Чукотское УГМС,ЧАУН,25151,68.88,170.78
1652,ФГБУ Верхне-Волжское УГМС,ЧЕБОКСАРЫ,27581,56.08,47.33
6092,ФГБУ Дальневосточное УГМС,ЧЕГДОМЫН,31469,51.17,132.95
1907,ФГБУ Приволжское УГМС,ЧЕЛНО-ВЕРШИНЫ,28705,54.42,51.1
3103,ФГБУ Уральское УГМС,ЧЕЛЯБИНСК-ГОРОД,28645,55.15,61.3
3466,ФГБУ Западно-Сибирское УГМС,Чемал,36058,51.23,86.01
3765,ФГБУ Среднесибирское УГМС,ЧЕМДАЛЬСК - Р.ПОДКАМЕННАЯ ТУНГУСКА,30014,59.6333,103.32
5313,ФГБУ Камчатское УГМС,ЧЕМУРНАУТ,25941,60.73,163.02
4850,ФГБУ Иркутское УГМС,ЧЕРВЯНКА,29393,57.65,99.53
3104,ФГБУ Уральское УГМС,ЧЕРДЫНЬ,23914,60.4,56.52
4598,ФГБУ Забайкальское УГМС,ЧЕРЕМХОВО,30944,50.58,110.15
6121,ФГБУ Иркутское УГМС,ЧЕРЕМХОВО,30617,53.18,103.03
2343,ФГБУ Северо-Кавказское УГМС,ЧЕРКЕССК,37047,44.21666667,42.01666667
2872,ФГБУ Обь-Иртышское УГМС,ЧЕРЛАК - Р.ИРТЫШ,28799,54.15666667,74.81527778
3114,ФГБУ Уральское УГМС,ЧЕРМОЗ,28128,58.77,56.2
3105,ФГБУ Уральское УГМС,ЧЕРНУШКА,28428,56.5,56.13
2344,ФГБУ Северо-Кавказское УГМС,ЧЕРНЫЙ ЯР - р. Bолга,34578,48.06666667,46.11666667
4600,ФГБУ Забайкальское УГМС,ЧЕРНЫШЕВСК,30766,52.53,117
4376,ФГБУ Дальневосточное УГМС,ЧЕРНЯЕВО - Р.АМУР,31371,52.78936111,126.0032222
796,ФГБУ Северо-Западное УГМС,ЧЕРНЯХОВСК,26711,54.63,21.8
2345,ФГБУ Северо-Кавказское УГМС,ЧЕРТКОВО,34432,49.38333333,40.16666667
291,ФГБУ Центральное УГМС,ЧЕРУСТИ,27538,55.55,40.02
6046,ФГБУ Иркутское УГМС,ЧЕЧУЙСК,30138,58.1,108.68
3467,ФГБУ Западно-Сибирское УГМС,Чистоозерное,29702,54.42,76.34
2788,ФГБУ УГМС Республики Татарстан,ЧИСТОПОЛЬ,28602,55.32333611,50.65333333
2190,ФГБУ Башкирское УГМС,ЧИШМЫ,28721,54.58944444,55.42972222
1908,ФГБУ УГМС Республики Татарстан,ЧУЛПАНОВО,28704,54.4925,50.41277778
3966,ФГБУ Западно-Сибирское УГМС,Чулым,29625,55.06,80.58
4377,ФГБУ Дальневосточное УГМС,ЧУМИКАН,31286,54.72,135.3
5082,ФГБУ Якутское УГМС,ЧУМПУРУК,24538,64.23,116.92
6037,ФГБУ Якутское УГМС,ЧУРАПЧА,24768,62.03,132.6
1382,ФГБУ Центральное УГМС,ЧУХЛОМА,27157,58.75,42.67
1565,ФГБУ Северное УГМС,ЧУШЕВИЦЫ,22956,60.5,41.75
5083,ФГБУ Якутское УГМС,ЧЮЛЬБЮ,31123,57.76666667,130.9
1638,ФГБУ Верхне-Волжское УГМС,ШАБАЛИНО,27281,58.3,47.12
3766,ФГБУ Среднесибирское УГМС,ШАГОНАР - Р.ЕНИСЕЙ,36089,51.4167,92.7333
2635,ФГБУ Северо-Кавказское УГМС,ШАДЖАТМАЗ,37126,43.73333333,42.66666667
3106,ФГБУ Уральское УГМС,ШАДРИНСК,28552,56.07,63.65
2873,ФГБУ Обь-Иртышское УГМС,ШАИМ - Р.КОНДА,23929,60.32166667,64.21638889
8739,ФГБУ Северо-Кавказское УГМС,ШАЛИ,37238,43.05,45.73333333
3767,ФГБУ Среднесибирское УГМС,ШАЛИНСКОЕ,29578,55.7167,93.75
3107,ФГБУ Уральское УГМС,ШАМАРЫ,28334,57.35,58.22
450,ФГБУ Северное УГМС,ШАНГАЛЫ,22869,61.13,43.35
1909,ФГБУ Приволжское УГМС,ШАРЛЫК,28916,52.93,54.75
1398,ФГБУ Центральное УГМС,ШАРЬЯ,27271,58.37,45.53
2335,ФГБУ Северо-Кавказское УГМС,ШАТОЙ - р. Аргун,37351,42.88333333,45.68333333
3108,ФГБУ Уральское УГМС,ШАТРОВО,28456,56.52,64.65
2772,ФГБУ Северо-Кавказское УГМС,ШАХТЫ,34635,47.70000278,40.28333333
1639,ФГБУ Верхне-Волжское УГМС,ШАХУНЬЯ,27373,57.66,46.63
3468,ФГБУ Западно-Сибирское УГМС,Шебалино,36057,51.18,85.41
3469,ФГБУ Западно-Сибирское УГМС,Шелаболиха,29837,53.25,82.36
5084,ФГБУ Якутское УГМС,ШЕЛАГОНЦЫ,24329,66.25,114.28
6212,ФГБУ Иркутское УГМС,ШЕЛЕХОВ,30711,52.2,104.08
8272,ФГБУ Северо-Кавказское УГМС,ШЕЛКОВСКАЯ,37167,43.53333333,46.36666667
4601,ФГБУ Забайкальское УГМС,ШЕЛОПУГИНО,30874,51.65,117.57
1217,ФГБУ Северное УГМС,ШЕНКУРСК,22768,62.11416667,42.89027778
2878,ФГБУ Обь-Иртышское УГМС,ШЕРБАКУЛЬ,28791,54.63194444,72.42305556
4602,ФГБУ Забайкальское УГМС,ШИЛКА,30862,51.87,116.03
1430,ФГБУ Центральное УГМС,ШИЛОВО,27736,54.33,40.89
6070,ФГБУ Дальневосточное УГМС,ШИМАНОВСК,31442,51.98,127.65
3470,ФГБУ Западно-Сибирское УГМС,Шипуново,36033,52.1,82.17
3768,ФГБУ Среднесибирское УГМС,ШИРА СТ.Ж.Д.,29756,54.5,89.9333
4851,ФГБУ Иркутское УГМС,ШИТКИНО,29498,56.35,98.36
3769,ФГБУ Среднесибирское УГМС,ШУМИХА,29566,55.95,92.3
3109,ФГБУ Уральское УГМС,ШУМИХА,28655,55.23,63.32
2785,ФГБУ Северо-Кавказское УГМС,ШУНТУК,37025,44.46666667,40.15
1368,ФГБУ Центральное УГМС,ШУЯ,27441,56.85,41.4
3770,ФГБУ Среднесибирское УГМС,ЩЕТИНКИНО,29771,54.53,93.43
8468,ФГБУ Якутское УГМС,ЫТЫК-КЮЁЛЬ,24766,62.4,133.57
5500,ФГБУ Колымское УГМС,Эвенск,25820,61.92,159.22
5085,ФГБУ Якутское УГМС,ЭЙК,24338,66.03,117.4
6200,ФГБУ Дальневосточное УГМС,ЭКИМЧАН - СЕЛЕМДЖА,31329,53.08,132.93
2813,ФГБУ Северо-Кавказское УГМС,ЭЛИСТА,34861,46.32,44.3
5487,ФГБУ Колымское УГМС,"Эльген, совхоз",25700,62.8,150.67
2346,ФГБУ Северо-Кавказское УГМС,ЭЛЬТОН,34476,49.13,46.85
791,ФГБУ Северо-Западное УГМС,ЭНГОЗЕРО - ОЗ.ЭНГОЗЕРО,22413,65.79013889,33.94108333
5476,ФГБУ Чукотское УГМС,ЭНЬМУВЕЕМ,25356,66.38,173.33
3771,ФГБУ Среднесибирское УГМС,ЭРЗИН - Р.ЭРЗИН,36307,50.2667,95.1167
5314,ФГБУ Камчатское УГМС,ЭССО,32363,55.93,158.7
6039,ФГБУ Якутское УГМС,ЮГОРЕНОК,31062,59.77,137.67
2730,ФГБУ Северо-Кавказское УГМС,ЮЖНО-СУХОКУМСК,37075,44.65,45.65
3110,ФГБУ Уральское УГМС,ЮЖНОУРАЛЬСК,28745,54.43,61.35
2874,ФГБУ Обь-Иртышское УГМС,ЮИЛЬСК - Р.КАЗЫМ,23635,63.67777778,69.65027778
3471,ФГБУ Западно-Сибирское УГМС,Юрга,29536,55.43,84.47
5086,ФГБУ Якутское УГМС,ЮРТЫ,24588,64.05,141.88
1330,ФГБУ Центральное УГМС,ЮРЬЕВ-ПОЛЬСКИЙ,27437,56.48,39.68
1373,ФГБУ Центральное УГМС,ЮРЬЕВЕЦ,27355,57.33,43.08
2347,ФГБУ Северо-Кавказское УГМС,ЮСТА,34772,47.13333333,46.31666667
790,ФГБУ Северо-Западное УГМС,ЮШКОЗЕРО - Р.КЕМЬ,22511,64.75,32.12
5477,ФГБУ Колымское УГМС,Ягодное,24796,62.51,149.61
5574,ФГБУ Приморское УГМС,ЯКОВЛЕВКА - Р.АРСЕНЬЕBКА,31935,44.25,133.29
451,ФГБУ Северное УГМС,ЯКША,23812,61.83,56.87
2875,ФГБУ Обь-Иртышское УГМС,ЯЛУТОРОВСК - Р.ТОБОЛ,28465,56.67760556,66.3412
4604,ФГБУ Забайкальское УГМС,ЯМКУН,30875,51.53,118.33
2191,ФГБУ Башкирское УГМС,ЯНАУЛ,28419,56.27,54.9
28,ФГБУ Мурманское УГМС,ЯНИСКОСКИ,22101,68.97,28.78
1640,ФГБУ Верхне-Волжское УГМС,ЯРАНСК,27385,57.37,47.92
1219,ФГБУ Северное УГМС,ЯРЕНСК,22798,62.17155833,49.10944444
2876,ФГБУ Обь-Иртышское УГМС,Ярково,28366,57.40750278,67.07388889
5087,ФГБУ Якутское УГМС,ЯРОЛЬИН,24219,67.13333611,108.5333333
1574,ФГБУ Центральное УГМС,ЯРОСЛАВЛЬ,27330,57.63,39.9
4274,ФГБУ Среднесибирское УГМС,ЯРЦЕВО - Р.ЕНИСЕЙ,23987,60.28,90.23
2348,ФГБУ Северо-Кавказское УГМС,ЯШКУЛЬ,34866,46.18,45.35
3472,ФГБУ Западно-Сибирское УГМС,Яя,29540,56.12,86.28
